stop_code,stop_id,stop_lat,stop_lon,stop_name,zone_id
DC3745,10183,28.7054,77.2231666666667,Balak Ram Hospital,10183
U02656,10184,28.706947,77.224038,Police Station Timarpur,10184
U02705,10185,28.709086,77.22626,Nehru Vihar Crossing,10185
U02737,10186,28.711529,77.228752,Wazirabad Crossing,10186
DC3724,10187,28.710233,77.241367,Gurudwara Nanak Sar,10187
DC3725,10188,28.7189,77.24325,Pusta No 1 Sonia Vihar,10188
DC3727,10189,28.721517,77.243867,Pusta No 2 Sonia Vihar,10189
DC3729,10190,28.725583,77.2448,Pusta No 3 Sonia Vihar,10190
DC3731,10191,28.730183,77.24575,Gatta Factory Sonia Vihar,10191
DC3732,10192,28.7324,77.246233,Sonia Vihar,10192
DC3734,10193,28.734583,77.246633,Pusta No 5 Sonia Vihar,10193
DC3737,10194,28.739367,77.24745,Check Post,10194
DC3738,10195,28.74245,77.246567,Annpurna Mandir,10195
DC3742,10196,28.754767,77.24325,Chauhan Patti (Terminal),10196
DC4197,10197,28.578409,77.058932,NHAI Building/ Dwarka Sec-10 Metro Station,10197
DC4346,10198,28.578591,77.054908,Dwarka Sec-19 Modern School,10198
DC4344,10199,28.574383,77.05115,Amrohi More,10199
DC4342,10200,28.573412,77.048418,St Marry School,10200
DC4340,10201,28.577292,77.035195,Police Post,10201
DC4338,10202,28.578247,77.02915,Qutub Vihar Phase-I Kikar Stand,10202
DC4336,10203,28.57905,77.024348,Jhankar Crossing,10203
DC4334,10204,28.579766,77.021478,Goyla Dairy,10204
DC4332,10205,28.580346,77.019327,Nehru Bus Stand Goyla Dairy,10205
DC4330,10206,28.581816,77.015072,St Thomas School Goyla Vihar,10206
DC4328,10207,28.58327,77.011534,Taj Pur More,10207
DC4324,10208,28.591403,77.000404,Shyam Vihar,10208
U00266,10209,28.591721,76.992877,Goela Dairy Crossing,10209
U00262,10210,28.593389,76.991941,Deenpur Village,10210
U00254,10211,28.596621,76.990298,Durga Vihar,10211
U00249,10212,28.600768,76.988661,BDO Office,10212
U00229,10213,28.60799,76.985536,Chhawla Stand Najafgarh,10213
U00226,10214,28.6103186141233,76.9813376578563,Police Station NajafGarh,10214
U00217,10215,28.617676,76.984284,Dichau Chowk,10215
U00234,10216,28.621747,76.98804,Udaseen Ashram,10216
U00252,10217,28.625259,76.992196,Nirmal Vihar,10217
U00288,10218,28.629304,76.997733,Dichau Kalan Depot,10218
DC0018,10219,28.707525,77.177797,Azadpur Terminal,10219
U01780,10220,28.7139,77.1725,New Sabzi Mandi,10220
U01761,10221,28.715917,77.170867,Adarsh Nagar / Bharola Village,10221
U01699,10222,28.720417,77.166983,Sarai Peepal Thala,10222
DC3598,10223,28.7215333333333,77.166,Mahindra Park,10223
DC3599,10224,28.7251,77.163217,Jahangir Puri GT Road,10224
DC3600,10225,28.7273,77.161583,Jahangir Puri Metro Station,10225
U01582,10226,28.731183,77.158617,GTK Depot,10226
DC3601,10227,28.734723,77.155831,Mukarba Chowk,10227
DC3602,10228,28.738473,77.154112,Mukraba Chowk / Sanjay Gandhi Transport Nagar,10228
U01479,10229,28.752467,77.149383,Libas Pur GT Road,10229
U01464,10230,28.75805,77.14765,Swaroop Nagar GT Road,10230
DC4802,10231,28.76486,77.145315,Gurudwara Siraspur GT Road,10231
DC5178,10232,28.771708,77.142899,Nangli Poona More,10232
DC5180,10233,28.771944,77.121967,Khera Garhi,10233
DC5182,10234,28.771903,77.117675,Khera Kalan School,10234
DC5184,10235,28.772345,77.115104,Khera Kalan Gaon,10235
DC5186,10236,28.773931,77.104022,Rishi Dharmarth Chikitsalaya,10236
DC5188,10237,28.773923,77.102521,Khera Khurd Village,10237
DC5191,10238,28.773761,77.09241,Khera Khurd Nahar Crossing,10238
DC5192,10239,28.783337,77.096637,Naya Bans,10239
DC5194,10240,28.793447,77.095545,Mann School,10240
DC5096,10241,28.795391,77.097784,Holambi Khurd DRID College,10241
DC5098,10242,28.799721,77.096011,Holambi Khurd,10242
DC5100,10243,28.801883,77.096003,Holambi Kalan Terminal,10243
DC4996,10244,28.809564,77.107095,Holambi Kalan Crossing,10244
DC4998,10245,28.817688,77.102397,Shahpur Garhi,10245
DC5002,10246,28.821204,77.100678,DSIDC Narela,10246
DC5004,10247,28.829162,77.094509,Bhor Garh,10247
DC5006,10248,28.833012,77.093266,Babu Jag Jeevan Ram Colony,10248
DC4537,10249,28.845328,77.088967,Old Anaj Mandi,10249
DC4538,10250,28.847045,77.088366,Narela Primary School,10250
DC4364,10251,28.779253,77.179936,Keshav Nagar Mukti Ashram,10251
DC4362,10252,28.775793,77.179669,Ibrahim Pur More,10252
DC3796,10253,28.768883,77.180783,Natthupura Crossing Terminal,10253
U01942,10254,28.7645,77.1838,Amrit Vihar Colony,10254
U02050,10255,28.761167,77.188717,Koushik Enclave,10255
U02086,10256,28.76015,77.1910833333333,Laxmi Vihar,10256
DC0054,10257,28.7555,77.1983,Ekta Garden Harijan Basti,10257
U02216,10258,28.7541,77.199,Burari Village,10258
U02214,10259,28.7492333333333,77.1985666666667,Sarvodhya Vidhyalay Burari,10259
U02200,10260,28.7467,77.1983,Balti Factory,10260
U02182,10261,28.7418,77.198,Sant Nagar Main Market,10261
U02160,10262,28.7377,77.1973,Sant Nagar A1,10262
U02169,10263,28.734483,77.197717,Jharoda Dairy Crossing,10263
U02199,10264,28.730567,77.198467,Burari Transport Authority,10264
U02185,10265,28.72773,77.198067,Nirankari Sarover,10265
DC0055,10266,28.72095,77.20015,CV Raman ITI,10266
U02301,10267,28.714883,77.2041,Nirankari Colony,10267
U02327,10268,28.7112333333333,77.2045,Radio Colony,10268
U09586,10269,28.706789,77.204733,Dhaka Village,10269
U02325,10270,28.70458,77.205033,Balmiki Gandhi Ashram,10270
U02318,10271,28.700567,77.205017,TB Hospital,10271
U02350,10272,28.698294,77.206554,GTB Nagar,10272
U02613,10273,28.690202,77.221419,Khyber Pass,10273
U02620,10274,28.687634,77.221672,Vidhan Sabha Metro Station,10274
U02628A,10275,28.683891,77.222282,Old Secretariat (Postal Account Office),10275
U99851,10276,28.679703,77.223955,IP College,10276
DC3689,10277,28.676602,77.225033,Exchange Store / Civil Lines Metro Station,10277
U02700,10278,28.672405,77.226008,Ludlow Castle,10278
DC3596,10279,28.668479,77.226269,ISBT Nityanand Marg,10279
U01890,10280,28.768915,77.18095,Natthupura Terminal,10280
U02176,10281,28.7387275691695,77.1976852838739,Sant Nagar A-1,10281
U02421,10282,28.70265,77.2098166666667,Sewa Kutir,10282
U02458,10283,28.704317,77.211183,BBM Cluster Depot,10283
DC4855,10284,28.532503,77.314934,Madanpur Khadar JJ Colony,10284
DC4856,10285,28.531925,77.304504,Madanpur Khadar Crossing,10285
DC4857,10286,28.543016,77.309486,Kalindi Kunj Metro Station,10286
DC4858,10287,28.545082,77.306213,Kalindi Kunj,10287
DC4859,10288,28.542816,77.303047,Shaheen Bagh,10288
DC4860,10289,28.5404,77.2968,Jasola Vihar,10289
DC4861,10290,28.538333,77.291867,Sarita Vihar K Block,10290
U03351,10291,28.539501,77.282682,Apollo Hospital,10291
U03323,10292,28.543764,77.27934,Harkesh Nagar,10292
U03292,10293,28.548007,77.276605,Okhla Tank,10293
U03273,10294,28.551088,77.273998,CRRI,10294
U03249,10295,28.554827,77.271291,Sukhdev Vihar Depot,10295
U03225,10296,28.55795,77.26895,Kalkaji Xing,10296
U03204,10297,28.561592,77.266287,Ishwar Nagar,10297
U03148S,10298,28.57045,77.259788,Ashram Chowk,10298
U03121,10299,28.574277,77.256865,Ashram (Hari Nagar),10299
U03049,10300,28.582917,77.251209,Bhogal,10300
U03037,10301,28.584692,77.249659,Bhogal (Jungpura),10301
U03000,10302,28.589269,77.246339,Nizamuddin Extension,10302
U02974,10303,28.591349,77.244916,Police Station Nizamuddin (Dargah),10303
U02860,10304,28.5924,77.23675,Ishpat Bhawan,10304
DC0094,10305,28.591833,77.232383,JLN Stadium (Sunehripulla Depot),10305
U02661,10306,28.586733,77.22425,Lodhi Colony 18-Block,10306
U99988,10307,28.584817,77.224533,Lodhi Colony,10307
U03421,10308,28.529703,77.287907,Madanpur Khadar Crossing,10308
U03398,10309,28.532092,77.286936,Sarita Vihar,10309
U03077,10310,28.568283,77.253917,Nehru Nagar,10310
U03024,10311,28.565391,77.248511,Lajpat Nagar Ring Road,10311
U02941,10312,28.564833,77.241433,Gupta Market,10312
U03997A,10313,28.564823,77.239969,Gupta Market,10313
U02843,10314,28.569135,77.235154,MCKR Hospital,10314
U02867,10315,28.573,77.237367,Defence Colony,10315
U02923,10316,28.583917,77.240533,Pant Nagar,10316
U02930,10317,28.587033,77.2408,CGO Complex,10317
U02920,10318,28.596267,77.240433,Amir Khusro Park / Oberoi Hotel,10318
U99968,10319,28.598783,77.2406,Delhi Public School,10319
U02904,10320,28.602217,77.240402,Sunder Nagar,10320
U02899,10321,28.6084,77.23995,Zoo,10321
U02897,10322,28.611683,77.239967,National Stadium,10322
U02901,10323,28.6155,77.24015,ITPO Gate No. 3,10323
U02907,10324,28.618483,77.240183,Pragati Maidan Gate No. 5,10324
U02909,10325,28.622877,77.240388,Supreme Court,10325
U99740,10326,28.623433,77.240567,Pragati Maidan Metro Station,10326
U02934,10327,28.629065,77.241192,ITO (Agarwal Chowk),10327
U02929,10328,28.633864,77.240804,Express Building,10328
U02932,10329,28.638817,77.241013,Delhi Gate / Ambedkar Stadium,10329
U02918,10330,28.64635,77.240226,Darya Ganj Golcha Cinema,10330
U02893,10331,28.649272,77.239311,Subhash Park,10331
U02879,10332,28.651255,77.237958,Jama Masjid,10332
U02858,10333,28.653939,77.236401,Red Fort,10333
DC5414,10334,28.542753,76.888748,Sarang Pur Village,10334
DC5412,10335,28.534792,76.90432,JhulJhuli Village,10335
DC4023,10336,28.535283,76.909333,Jhul-Jhuli Check Post / Ghumanhera Crossing,10336
DC4578,10337,28.552333,76.907483,Malik Pur Village Crossing,10337
DC4025,10338,28.5683384634491,76.9065230295013,Ujwa Gaon,10338
DC4009,10339,28.5735106,76.9082469,Ujwa School,10339
U00055,10340,28.600403776461,76.9161106637266,Rawta Crossing (Dhansa Road),10340
U00069,10341,28.60448,76.932397,Surehra Crossing,10341
U00078,10342,28.607252,76.939754,Mitraon School,10342
DC4746,10343,28.608343,76.951668,Mitraon Crossing,10343
U00116,10344,28.608858,76.959974,Indra Service Station,10344
U00158,10345,28.609487,76.967851,Nanak Piyau,10345
U00168,10346,28.610354,76.971259,Prem Nursary,10346
U00184,10347,28.6111300229137,76.9744597383946,Khera More / Ghuman Hera Crossing,10347
U00202,10348,28.6137657049756,76.9793626157992,Jharoda Crossing Jharoda Road,10348
U00192,10349,28.6148311619155,76.9772491148408,NajafGarh Terminal,10349
U01725,10350,28.703538,77.169078,Shalimar Bagh (Ring Road),10350
U01667,10351,28.701819,77.165532,Ashok Vihar Crossing,10351
U01613,10352,28.70097,77.161821,Richi Rich,10352
U01576,10353,28.700065,77.158465,Prem Bari Pul,10353
U01546,10354,28.695994,77.155671,Punjab Kesari (Subhash Palace Depot),10354
DC0031,10355,28.693861,77.150918,Wazirpur DTC Depot / Netaji Subhash Palace,10355
U01448,10356,28.69553,77.146025,Pitampura ND Block,10356
U01392,10357,28.697168,77.142174,Kohat Enclave Metro Station,10357
U01338,10358,28.699303,77.137619,Vaishali  Enclave / Kapil Vihar,10358
U01298,10359,28.701454,77.134768,JD Block Pitam Pura,10359
U01252,10360,28.702886,77.130242,Madhuban Chowk Outer Ring Road,10360
U01199,10361,28.700082,77.125333,Saraswati  Vihar C Block,10361
U01135,10362,28.69796,77.11962,Deepali Chowk,10362
U01086,10363,28.697185,77.115505,Kali Mata Mandir,10363
U01059,10364,28.696165,77.111793,Puspanjali Enclave,10364
U01043,10365,28.695388,77.109414,Rohini Depot  3,10365
U99992,10366,28.694461,77.106694,Mangolpur School,10366
U00979,10367,28.695549,77.101135,Mangolpur Kalan Village,10367
DC0011,10368,28.69875,77.0964,Avantika Crossing,10368
U00896,10369,28.700005,77.094325,Mangol Pur Khurd,10369
U00832,10370,28.702634,77.089647,Mangolpuri Y Block,10370
U00797,10371,28.704528,77.086895,Krishna Vihar,10371
U00765,10372,28.709736,77.081042,Krishna Vihar,10372
U00723,10373,28.7125001,77.0805,Brahm Shakti Hospital,10373
U00682,10374,28.714257,77.076933,Pooth Kalan,10374
U00618,10375,28.7187,77.0696,Rohini Sec-21,10375
U00591,10376,28.7217,77.06495,Begumpur,10376
U00544,10377,28.724733,77.058746,Rajeev Nagar,10377
U00518,10378,28.726356,77.053345,Karala Pathsala Jain Mandir,10378
U00484,10379,28.727533,77.04895,Sukhbeer Nagar,10379
U00465,10380,28.728583,77.045817,Rama Vihar,10380
U00443,10381,28.730681,77.039664,Karala School,10381
U00429,10382,28.7315,77.037,Karala Village,10382
U99798,10383,28.731601,77.031627,Karala Crossing,10383
U99807,10384,28.7325,77.0284,Desu Office,10384
DC0007,10385,28.7333,77.025,Shiv Vihar Bheem Chowk,10385
U99798A,10386,28.73384,77.0208,Radha Swami Satsang,10386
U00352,10387,28.7352,77.0125833333333,Shivam Plywood,10387
DC4667,10388,28.737911,77.00692,Kanjhawla Chowk,10388
DC4668,10389,28.738428,77.004399,Nirmal Hospital,10389
DC4670,10390,28.73949,76.997517,Ladpur Village,10390
DC4671,10391,28.740338,76.994313,Rajendra Lakra Public School,10391
DC4672,10392,28.74225,76.9865,Sant Vivekanand School,10392
DC4673,10393,28.744467,76.980917,Vriddha Ashram,10393
DC4674,10394,28.74615,76.978217,Jonti Crossing,10394
DC4675,10395,28.7531452409393,76.972067834944,Jonti Village,10395
DC4676,10396,28.755872,76.968475,Tatesar Village,10396
DC4678,10397,28.767498,76.96456,Balaji Enclave,10397
DC4679,10398,28.773006,76.962094,Punjab Khor Village,10398
DC4680,10399,28.7779,76.9614,Punjab Khor Village,10399
DC4682,10400,28.788119,76.962441,Divya Dham Ashram,10400
DC4681,10401,28.79069,76.962473,Jatt Khor Crossing,10401
DC4909,10402,28.7977,76.960533,Qutub Garh Enclave,10402
DC4910,10403,28.801274,76.962031,Qutub Garh Village (T),10403
DC4911,10404,28.8061001,76.9658501,Katewara Crossing,10404
U03043,10405,28.6389,77.2502,Rajghat Gandhi Darshan,10405
U03011,10406,28.636983,77.247267,Gandhi Darshan,10406
U03007P,10407,28.6336,77.2469,Indira Gandhi Stadium,10407
DC3679,10408,28.624078,77.247687,IP Power House (ITO Ring Road),10408
U03025,10409,28.6195,77.249,Indraprastha Depot,10409
U03040,10410,28.616,77.2501,Pragati Power Station,10410
U03052,10411,28.610753,77.2517899,Railway Road Bridge,10411
U03075,10412,28.603408,77.254218,Nizamuddin Road Bridge,10412
U03147,10413,28.5908681,77.2581704,ISBT Sarai Kale Khan,10413
DC0100,10414,28.5847,77.2247,Lodhi Colony,10414
U02735,10415,28.584967,77.228233,Central School Lodhi Road,10415
U02783,10416,28.5841,77.2301,J L Nehru Stadium,10416
U02775,10417,28.57875,77.229533,Sewa Nagar Flyover,10417
U02732,10418,28.571983,77.227669,Defence Colony (Homyopathic College),10418
U02710,10419,28.569817,77.22655,PT College Kotla,10419
U02788,10420,28.565987,77.230567,Andrews Ganj,10420
U99989,10421,28.565133,77.239733,Gupta Market,10421
U02951,10422,28.565202,77.242598,Lajpat Nagar (Ring Road),10422
U02950,10423,28.565781,77.249098,Lajpat Nagar Ring Road,10423
U03041,10424,28.564183,77.250367,Lajpat Nagar Crossing,10424
U03047,10425,28.5624,77.251417,Garhi Village,10425
U03102,10426,28.562167,77.255617,B-Block East of Kailash,10426
U03142,10427,28.56215,77.2582,C-Block East of Kailash,10427
U03162,10428,28.5612422,77.2601598,SNPD,10428
U03190,10429,28.5565,77.2648,Laghu Udyog Sansthan (ModiMill),10429
U03196,10430,28.553683,77.265133,NSIC,10430
U03181,10431,28.55205,77.2645,Kalkaji Mandir,10431
U03174,10432,28.5479,77.263,Kalkaji Mandir (MaaAnandmayeeMarg),10432
U03185,10433,28.545217,77.2641,Govind Puri Metro Station,10433
U03206,10434,28.5375,77.2674,Kalkaji Depot,10434
U03219,10435,28.534033,77.268667,C-Lal Chowk,10435
DC0136,10436,28.527867,77.272383,CRPF Camp / Crown Plaza,10436
DC0137,10437,28.5261,77.2736,Bank,10437
U03297,10438,28.5203,77.2777,Okhla Ph-I,10438
U99679Z,10439,28.510917,77.281167,Tehkhand Depot DTC,10439
U03321,10440,28.5044,77.2793,Prem Nagar,10440
U03366,10441,28.5026,77.284517,Lal Kuan,10441
U03435,10442,28.5017,77.291,Surajkund Crossing,10442
U03466,10443,28.5,77.294633,Prehlad Pur,10443
U03520,10444,28.4995,77.299267,Badarpur M B Road,10444
U03544,10445,28.498104,77.302191,Jaitpur Crossing,10445
DC4311,10446,28.628968,76.997542,Dichau Kalan Depot,10446
DC4312,10447,28.625293,76.992481,Nirmal Vihar,10447
DC4313,10448,28.621564,76.988064,Udaseen Ashram,10448
DC4314,10449,28.616516,76.98382,Dichau Chowk,10449
U00233,10450,28.611746,76.985721,NajafGarh Delhi Gate,10450
U00231,10451,28.607056,76.986005,Chawla Stand Najafgarh,10451
U00251,10452,28.600879,76.988758,BDO Office,10452
U00255,10453,28.59664,76.99046,Durga Vihar,10453
U00263,10454,28.594055,76.991774,Deenpur Village,10454
U00267,10455,28.591726,76.992969,Goela Dairy Crossing,10455
DC4323,10456,28.591481,77.000564,Shyam Vihar,10456
DC4327,10457,28.583311,77.011776,Taj Pur More,10457
DC4329,10458,28.581902,77.015056,St Thomas School Goyla Vihar,10458
DC4331,10459,28.580514,77.019268,Nehru Bus Stand Goyla Dairy,10459
DC4333,10460,28.5798547497433,77.021953036937,Goyla Dairy (Qutub Vihar),10460
DC4335,10461,28.579252,77.024293,Jhankar Crossing,10461
DC4337,10462,28.5784,77.029767,Qutub Vihar Phase-I Kikar Stand,10462
DC4339,10463,28.577431,77.035333,Police Post,10463
DC4343,10464,28.574817,77.0513,Amrohi More,10464
DC4345,10465,28.578167,77.0542,Dwarka Sec-19 Modern School,10465
DC4198,10466,28.579068,77.059118,NHAI Building/ Dwarka Sec-10 Metro Station,10466
DC4199,10467,28.582753,77.062279,President Cabinet Apartments,10467
DC4200,10468,28.587688,77.066452,Princess Park/ Airforce Noval Office Enclave,10468
DC4201,10469,28.59126,77.069535,Dwarka Sec-6/7,10469
DC4202,10470,28.593228,77.070994,Dwarka Sec-6 Telephone Exchange,10470
DC3646,10471,28.593101,77.079538,Maharaja Agrasen Hospital Dwarka,10471
U00731,10472,28.592015,77.081258,Health Centre,10472
U00780,10473,28.590099,77.086907,Mangla Puri Terminal,10473
U02523A,10474,28.632763,77.215806,Shivaji Stadium Terminal,10474
DC3751,10475,28.633293,77.212365,Shaheed Bhagat Singh Marg,10475
U02415,10476,28.633562,77.209301,Shaheed Bhagat Singh Marg,10476
U02288,10477,28.6347,77.2037,Gole Market,10477
U02283,10478,28.638783,77.20345,PS Mandir Marg,10478
U02306BM,10479,28.639867,77.2043,Balmiki Mandir,10479
U02295,10480,28.6417,77.2042,Panchkuian Road Banwai Lal Hospital,10480
U02240,10481,28.643667,77.201033,Meghdoot Bhawan,10481
U02105,10482,28.644583,77.192833,Pusa Road Petrol Pump Sadhu Vaswani Marg,10482
U02028,10483,28.643911,77.188747,Karol Bagh Metro Station,10483
U01796,10484,28.6424110602643,77.1734091778132,East Patel Nagar,10484
U01717,10485,28.6453945693725,77.1684196058229,South Patel Nagar (Metro Station),10485
U01665,10486,28.647504,77.164974,West Patel Nagar,10486
U01575,10487,28.6513447000214,77.1585098882541,Shadipur DTC Colony Metro Station,10487
U01543,10488,28.653117,77.1555,Shadipur Depot,10488
U01472,10489,28.657317,77.1485,Moti Nagar Industrial Area,10489
U01399,10490,28.661,77.142383,Karampura Terminal,10490
U01374,10491,28.6635,77.1406,New Moti Nagar B Block,10491
U01337,10492,28.669318,77.137519,Punjabi Bagh Terminal,10492
U01463,10493,28.684228,77.147619,Shakkur Pur Crossing / Britannia,10493
U01488,10494,28.686452,77.150998,Telephone Exchange,10494
U01521,10495,28.691698,77.153496,Netaji Subhas Place/Wazirpur Depot,10495
U01504,10496,28.6979,77.151475,Guru Govind Singh College,10496
U01498,10497,28.699707,77.151202,TV Tower (Power House),10497
U01426,10498,28.699912,77.14428,DAV School,10498
U99722,10499,28.7002,77.1411,Pitam Pura KD Block,10499
U01361,10500,28.703277,77.139304,Pittampura AP-Block,10500
U01345,10501,28.705955,77.138462,Pitampura CD-Block,10501
U01270,10502,28.704931,77.132221,Madhuban Chowk (Outer Ring Road),10502
U01251,10503,28.704675,77.130151,Madhuvan Chowk,10503
U01194,10504,28.707658,77.123974,Sai Baba Chowk Rohini Sec 7,10504
U01101,10506,28.711578,77.120316,Rohini Sec 7 and 8,10506
DC0005,10507,28.715,77.115,Rohini West Metro Station,10507
U01081,10508,28.7158,77.113983,Rohini Depot 1 Sec 6 (Ambedkar Hospital),10508
U01064,10509,28.71725,77.111833,Rajeev Gandhi Cancer Hospital,10509
U01033,10510,28.71964,77.108529,Rithala Metro Station,10510
U01006,10511,28.723411,77.103745,Pal Colony,10511
DC0040,10512,28.725811,77.100279,Rithala Village,10512
DC0041,10513,28.727139,77.098373,Sec-24 Rohini Main Road,10513
DC0042,10514,28.72976,77.094556,Dera Satguru Sewaram Sahai Sec 24/25 Crossing,10514
DC0044,10515,28.722883,77.08773,Hanuman Mandir Rohini Sec 24,10515
DC0045,10516,28.7192220505417,77.0846028893605,Rohini Sec 23 (Green Hill Aptt.),10516
DC4419,10517,28.532153,76.922323,Ghuman Hera Village,10517
DC4420,10518,28.536905,76.922167,Ghuman Hera More / Shikarpur Crossing,10518
DC4421,10519,28.548976,76.930686,Dewta Wala mandir,10519
DC4422,10520,28.5568222695004,76.9368548833972,Hasanpur Village,10520
DC4423,10521,28.56176,76.941887,KharKhari Rondh,10521
DC4424,10522,28.574027,76.952356,Pandwala Crossing,10522
DC4425,10523,28.582168,76.957902,KharKhari Jatmal / Surhera Crossing,10523
DC4426,10524,28.58704,76.959128,KharKhari Nahar / Khera Dabur,10524
DC4432,10525,28.596312,76.964794,Khera Village 2,10525
DC4784,10526,28.606791,76.972726,Krishna Nagar / Gopal Nagar,10526
DC4461,10527,28.5846382853658,76.9950528230485,Jhatikra Crossing Pandwala Road,10527
DC4452,10528,28.572355,76.980956,Rewla Khanpur Crossing,10528
DC4454,10529,28.569584,76.977685,Purani Basti Rewla Khanpur,10529
DC5415,10530,28.835983,77.123838,Tikri Khurd,10530
DC4967,10531,28.836177,77.12839,Tikri Khurd Crossing / AMPC,10531
DC4979,10532,28.835604,77.128935,Tikri Khurd Crossing / AMPC,10532
DC4980,10533,28.824476,77.132311,Khampur Village,10533
DC5058,10534,28.810288,77.137092,Bakauli Village (GT Road),10534
DC4829,10535,28.8012,77.138967,Pwd Office,10535
DC4830,10536,28.796617,77.1396,Alipur Village GT Road,10536
DC4832,10537,28.793233,77.14415,Jind Pur Crossing,10537
DC4833,10538,28.78865,77.141467,Sai Mandir,10538
DC4834,10539,28.782107,77.141601,Budhpur GT Road,10539
DC4835,10540,28.77715,77.142633,Jain Mandir,10540
DC4836,10541,28.774167,77.143267,Nangli Poona (GT Road),10541
DC4837,10542,28.764956,77.146126,Gurudwara Siraspur GT Road,10542
U00736,10543,28.522481,77.082442,Kapashera Border,10543
U00759,10544,28.524517,77.0837,Kapashera Village,10544
U00808,10545,28.531234,77.088154,Kapashera Crossing,10545
U00834,10546,28.534492,77.090371,Samalkha Village,10546
U00856,10547,28.538205,77.091434,Samalkha Crossing,10547
NS0198,10548,28.5422626711678,77.0735459241414,Puspanjali G Block,10548
U00527BP,10549,28.544217,77.065083,Dwarka Road,10549
U00527,10550,28.547567,77.057117,Bharthal Under Pass,10550
DC4186,10551,28.5519186,77.0566312,Dwarka Sec-21 Metro Station,10551
DC4184,10552,28.55411,77.05858,Dwarka Sec-21 Crossing,10552
DC4288,10553,28.558065,77.061889,Dwarka Sec 22 Vivanta Hotel,10553
DC4935,10554,28.5639249,77.0627421,Dwarka Sec-20/21 Crossing,10554
DC4929,10555,28.56622,77.06691,Dwarka Sec-8 Metro Station,10555
DC4930,10556,28.56294,77.07074,Shahbad Mohammad Pur School,10556
DC4931,10557,28.559648,77.071398,Shahbad Mohammad Pur Village,10557
DC4932,10558,28.56278,77.07072,Shahbad Mohammad Pur School,10558
DC4933,10559,28.5675435,77.0666171,Dwarka Sec-8 Metro Station,10559
DC4936,10560,28.56852,77.06788,Dwarka Sec8,10560
DC4937,10561,28.57252,77.06916,Bagdola Village,10561
DC4938,10562,28.5758,77.07134,Dwarka Sec8 DTC Depot,10562
DC4939,10563,28.5765,77.07594,National Malariya Research Centre (Dwarka),10563
DC4940,10564,28.57818,77.07708,Dada Dev Mandir,10564
DC4941,10565,28.57876,77.07616,National Malariya Research Centre (Dwarka),10565
DC4942,10566,28.5815,77.0703,Royal Residency (Dwarka),10566
DC4943,10567,28.58367,77.06701,Munirka Flats (Dwarka),10567
U99908,10568,28.594499,77.073519,Dwarka Sec 1,10568
DC4846,10569,28.59687,77.080944,Sulabh International Centre,10569
DC4844,10570,28.60084,77.08199,Mahaveer Enclave III,10570
DC4843,10571,28.60353,77.08266,Dashrath Puri,10571
DC4841,10572,28.60654,77.08111,Vijay Enclave (Palam-Dabri Road),10572
DC4839,10573,28.608043,77.081954,Dabri Village,10573
U00781,10574,28.6128332543193,77.0860911074767,Dabri Crossing Dwarka Road,10574
U00807,10575,28.61446,77.086985,C2D Janakpuri,10575
U00810,10576,28.616659,77.087976,C4E Janakpuri,10576
U00820,10577,28.621222,77.088818,C2B Janak Puri,10577
DC4065,10578,28.62235,77.09365,Bharti College,10578
DC4066,10579,28.6232,77.09615,Virender Nagar / Dilli Haat,10579
DC4944,10580,28.62541,77.10109,Hari Nagar Depot,10580
U00967,10581,28.627917,77.100067,G Block Hari Nagar,10581
U00950,10582,28.631133,77.098567,Fateh Nagar,10582
U00928,10583,28.635737,77.096692,Tilak Nagar Jail Road,10583
DC3534,10584,28.635322,77.092959,Tilak Nagar Crossing (Najafgarh Road),10584
DC3535,10585,28.633858754923,77.0888298522768,Janak Puri Check Post,10585
U00773,10586,28.632306,77.084585,B2A Janakpuri,10586
U00712,10587,28.630488,77.080047,Janak Puri District Centre,10587
U00679,10588,28.629119,77.076482,Dholi Piao,10588
U00617,10589,28.626449,77.06969,Vikaspuri Crossing,10589
U00600,10590,28.624597,77.06498,Uttam Nagar Terminal,10590
U00779,10591,28.5899833333333,77.0870166666667,Mangla Puri Terminal,10591
U00732,10592,28.591,77.0814,Health Centre,10592
U00714,10593,28.592833,77.079486,Dwarka Crossing / Maharaja Agrasen Hospital,10593
U99641,10594,28.594283,77.073867,Dwarka Sec 1,10594
U00626,10595,28.595421,77.070134,J M International School,10595
U00589,10596,28.597335,77.064944,Dwarka Sec 2-6,10596
U00558,10597,28.599779,77.061168,Madhu Vihar,10597
U00526,10598,28.6038,77.0551,Rajapuri,10598
DC3647,10599,28.605032,77.051737,Matiyala Xing,10599
U00469,10600,28.604518,77.046323,DPS Matiyala,10600
U00459,10601,28.602648,77.043175,Dwarka Sec 3-4,10601
U00449,10602,28.602551,77.040932,Dwarka Sec 13-3 Xing,10602
U00439,10603,28.603988,77.038876,MRV School Sec 13 Dwarka,10603
U00424,10604,28.605684,77.036274,Dwarka Sec 13,10604
U00416,10605,28.607416,77.035099,NSIT (Netaji Subhas Institute) / Sulahkul Mandir,10605
DC3626,10606,28.610723,77.034031,Suraj Vihar,10606
U00389,10607,28.6189259761464,77.0295846256512,Kakrola More,10607
U00377,10608,28.619809,77.024876,Kakrola Bridge,10608
U00367,10609,28.6197008886414,77.0176653844578,Nangli Dairy,10609
DC4881,10610,28.618803,77.015219,Chhathh Ghat Park,10610
U00354,10611,28.618083,77.013083,Arjun Park,10611
U00329,10612,28.6162575580097,77.0080117622372,Nangli Sakrawati Crossing,10612
DC3562,10613,28.6146300895119,77.0039039906278,Nangli Sakrawati,10613
U00293,10614,28.613536,76.999497,Sai Baba Mandir,10614
U00285,10615,28.612929,76.995552,Power House NajafGarh,10615
U00261,10616,28.6125090959708,76.9923600178753,Tuda Mandi,10616
U03064,10617,28.586388,77.253259,Nizamuddin Railway Station,10617
U03061,10618,28.5825,77.2527,Rajdoot Hotel,10618
U03122,10619,28.57449,77.256841,Ashram (Hari Nagar),10619
U03063,10620,28.56675,77.253117,Sri Niwaspuri / PG DAV College Lajpat Nagar,10620
U99867A,10621,28.51529,77.281062,ESI Hospital Okhla,10621
U03362,10622,28.5164,77.2835,Central Work Shop II,10622
DC3707,10623,28.66696,77.227456,ISBT Kashmere Gate Terminal,10623
U02517,10624,28.666662,77.21926,Tees Hazari Court,10624
U99922,10625,28.6671,77.2149,St Stephen Hospital,10625
U02411,10626,28.666336,77.208872,Ice Factory (Rani Jhansi Road),10626
U02348,10627,28.669035,77.204663,Roshnara Road,10627
U02235,10628,28.6717,77.2007,Roshnara Bagh,10628
U02246,10629,28.6774,77.201633,Clock Tower,10629
U02208,10630,28.6804,77.1993,Shakti Nagar,10630
U02143,10631,28.679846,77.195746,Shakti Nagar Nangia Park,10631
U02040,10632,28.677233,77.188967,Chowki No 2 / Gulabi Bagh Crossing,10632
U02023,10633,28.674998,77.188525,Gulabi Bagh,10633
U01992,10634,28.672401,77.186038,Shastri Nagar A Block,10634
U01945,10635,28.671105,77.184219,Subhadra Colony,10635
U01912,10636,28.669997,77.181336,Shastri Nagar Metro Station,10636
U01837,10637,28.6711,77.17605,Shastri Nagar E Block,10637
U01790,10638,28.6716,77.173,Shastri Nagar Shiv Mandir,10638
U01727,10639,28.673633,77.168983,Inderlok Metro Station,10639
U01664,10640,28.680933,77.165433,Kanhaiya Nagar,10640
U01627,10641,28.6861,77.1629,B3 Keshav Puram,10641
U01621,10642,28.687583,77.162267,B-4 Keshav Puram,10642
U01014,10643,28.694632,77.105225,Mangol Pur School (Kanjhawla Road),10643
U00934,10644,28.698239,77.097085,Avantika Xing,10644
U00658,10645,28.7155,77.0743,Rohini Sec 20/21 More,10645
DC4512,10646,28.665305,76.943439,Satyapuram Jharoda,10646
DC4493,10647,28.655083,76.950083,Jharoda Kalan,10647
DC4494,10648,28.65085,76.9531,Jharoda Village,10648
DC4495,10649,28.646688,76.956119,S.S. Kanya Vidhyalaya,10649
DC4496,10650,28.642863,76.958365,PTS Jharoda,10650
DC4497,10651,28.638805,76.960707,CRPF Jharoda,10651
DC4503,10652,28.633583,76.963783,Sainik Enclave Jharoda,10652
DC4498,10653,28.63045,76.965683,Saraswati Kunj Jharoda,10653
DC4504,10654,28.627867,76.967333,Naveen Palace,10654
DC4499,10655,28.623817,76.970483,Baba Haridass Nagar,10655
DC4500,10656,28.619058,76.974408,New Anaj Mandi,10656
DC4501,10657,28.6155,76.976417,Surakh Pur Crossing,10657
U00598,10658,28.626011,77.068195,Uttam Nagar,10658
DC3691,10659,28.619633,77.079183,A-3 Janak Puri,10659
U00766,10660,28.6219,77.0842,C-2 Janakpuri,10660
U00825,10661,28.621752,77.092199,Bharti College / C2B Janak Puri,10661
U00818,10662,28.617217,77.088345,C4E Janakpuri,10662
U00870,10663,28.615417,77.092583,Central Market C3 Janakpuri,10663
U00903,10664,28.616333,77.09525,C-4H Janakpuri,10664
U00939,10665,28.6148,77.0977,Janakpuri C-5A,10665
U00956,10666,28.6109508,77.0989138,Desu Colony Janakpuri,10666
U01069,10667,28.6182233,77.1121149,Zunk Market,10667
U01100,10668,28.622267,77.1171,Gulab House,10668
U01115,10669,28.62395,77.1186,Bobby Soap,10669
U01125,10670,28.625367,77.11975,PS Mayapuri,10670
U01175,10671,28.629,77.122817,Metal Forging,10671
U01217,10672,28.634617,77.127633,Government Press,10672
U01231,10673,28.63685,77.12835,Mayapuri Depot,10673
U01305,10674,28.626883,77.135333,Naraina Vihar / Indra Market,10674
U01348,10675,28.6314,77.1384,Payal Cinema,10675
U01436,10676,28.641383,77.145217,Loha Mandi,10676
U01494,10677,28.644717,77.147667,Bentax,10677
U01466,10678,28.64905,77.1513,Naraina Depot,10678
U01520,10679,28.650051,77.153678,Pandav Nagar,10679
U01549,10680,28.6516,77.1561,Shadipur Colony,10680
U01581,10681,28.6515,77.1587,Shadipur Metro Station,10681
U01663,10682,28.64795,77.164783,West Patel Nagar,10682
U01729,10683,28.6454,77.1689,South Patel Nagar (Metro Station),10683
U01769,10684,28.642967,77.17315,East Patel Nagar,10684
U01843,10685,28.6425,77.1773,Rajendra Place,10685
U02034,10686,28.6442,77.189,Karol Bagh Metro Station,10686
U02113,10687,28.6448,77.1934,Pusa Road Petrol Pump Sadhu Vaswani Marg,10687
U02237,10688,28.644,77.200983,Meghdoot Bhawan,10688
U02285,10689,28.6441,77.2036,Videocon Tower,10689
U02396,10690,28.646179,77.208232,Paharganj Police Station,10690
U02482,10691,28.6452,77.2133,Dispensary Paharganj,10691
U02693,10692,28.643383,77.225733,Ajmeri Gate / Kamla Market,10692
U02744,10693,28.642068,77.228325,JLN Marg,10693
U02781,10694,28.641166,77.230002,Zakir Husain College,10694
U02820,10695,28.641834,77.233136,Turkman Gate / GB Pant Hospital,10695
U02841,10696,28.6412,77.235016,Delite Cinema,10696
U02885,10697,28.64073,77.238584,Delhi Gate,10697
U02856,10698,28.653961,77.23645,Red Fort,10698
U02839,10699,28.661944,77.234569,GPO,10699
U02786,10700,28.665331,77.230123,Guru Govind Singh University (Kashmere Gate),10700
U02785,10701,28.666756,77.229348,ISBT Kashmere Gate,10701
U02681,10702,28.666517,77.225883,Mori Gate Terminal,10702
DC5262,10703,28.7950053613795,77.0411360466838,Bawana Sec 1 Cluster Depot,10703
DC4557,10704,28.819594,77.063606,Sannoth Crossing / Ghoga Crossing,10704
DC5260,10705,28.81561,77.07098,Sannoth Village,10705
DC5103,10706,28.809729,77.087395,Holambi Kalan JJ Colony,10706
DC5362,10707,28.809404,77.09877,Holambi Kalan Fatak,10707
DC4997,10708,28.809357,77.10746,Holambi Kalan Crossing,10708
DC5009,10709,28.797139,77.117385,Holambi Khurd Crossing,10709
DC5010,10710,28.79804,77.127346,Alipur Garhi,10710
DC5011,10711,28.797253,77.133138,Alipur Village,10711
DC4808,10712,28.8022,77.1386,Pwd Office,10712
DC4965,10713,28.811931,77.135652,Bakauli Village,10713
DC4966,10714,28.824805,77.13183,Khampur Village,10714
DC5417,10715,28.835211,77.12846,Tikri Khurd Crossing,10715
DC5416,10716,28.835878,77.1238,Tikri Khurd,10716
U03656,10717,28.646328,77.314904,Anand Vihar ISBT Terminal,10717
U03710,10718,28.660523,77.319926,Ram Prastha Crossing,10718
U03713,10719,28.663552,77.320362,Ram Prastha Temple,10719
U03724,10720,28.666954,77.321483,Surya Nagar (Gazipur Road),10720
DC3662,10721,28.676241,77.321331,Shahdara Border GT Road,10721
U03689,10722,28.676186,77.317518,Jhilmil Xing,10722
U03647,10723,28.675883,77.3118,Dilshad Garden GT Road,10723
U99890,10724,28.675817,77.309217,Telephone Exchange,10724
U03515,10725,28.675479,77.300119,Mansarovar Park Metro Station,10725
U03296,10726,28.672,77.275,Welcome Colony Metro Station,10726
U03241,10727,28.6717988050285,77.2733799557566,Welcome Colony,10727
U03198,10728,28.670722,77.266485,Seelampur Metro Station,10728
U03167,10729,28.670717,77.261917,Dharam Pura,10729
U03125,10730,28.6723,77.2571,Shastri Park,10730
DC3593,10731,28.673195,77.251804,Shastri Park,10731
U03020,10732,28.67382,77.248024,Shyam Giri Mandir,10732
DC3594,10733,28.674167,77.243433,Shastri Park DMRC Depot,10733
U02948,10734,28.673433,77.241183,Shastri Park Metro Depot,10734
DC3595,10735,28.6692301,77.228774,ISBT Bridge,10735
U02382,10736,28.6627,77.2075,Azad Market,10736
U02319,10737,28.660752,77.204049,Bara Hindu Rao,10737
U02291,10738,28.657229,77.203685,Model Basti,10738
U02202,10739,28.655331,77.198831,Guru Govind Singh Marg,10739
U02121,10740,28.65754,77.194648,Tibiya College,10740
DC3657,10741,28.659086,77.191154,Ram Jas Road,10741
U99836,10742,28.659825,77.188866,Liberty Cinema,10742
U01968,10743,28.661182,77.185019,Sarai Rohilla Govt Qtrs (Rohtak Road),10743
U01925,10744,28.662538,77.182083,Sarai Rohila (Rohtak Road),10744
U01812,10745,28.665198,77.174292,Anand Parvat Industrial Area,10745
U01744,10746,28.666349,77.170126,Daya Basti Flyover,10746
U01672,10747,28.668391,77.165402,Zakhira Flyover,10747
U01533,10748,28.671287,77.156585,Ashok Park Main,10748
U01491,10749,28.671806,77.15387,Ram Pura,10749
U01459,10750,28.672782,77.146897,Punjabi Bagh West Power House,10750
U01417,10751,28.673121,77.143689,Punjabi Bagh Terminal (Rohtak Road),10751
U03305,10752,28.702199,77.278463,C 4 Yamuna Vihar,10752
U03272,10753,28.702588,77.273744,Yamuna Vihar Brijpuri,10753
U03242,10754,28.702752,77.271309,B-Block Yamuna Vihar,10754
U99761,10755,28.703351,77.263706,Bhajanpura,10755
U03130K,10756,28.7039,77.2562,Khajuri,10756
DC3588,10757,28.6992,77.255533,Garhi Maidu,10757
U03097,10758,28.695121,77.254951,Gamri Extn Pusta No.5,10758
U03080,10759,28.68945,77.254167,Kartar Nagar,10759
U03086,10760,28.686317,77.254567,Jagjit Nagar,10760
DC3590,10761,28.679983,77.256183,New Usman Pur Pusta No-1,10761
DC3591,10762,28.6778,77.256783,Zero Pusta,10762
DC3592,10763,28.674017,77.2563,Shastri Park Pusta Road,10763
U02698,10764,28.672284,77.225834,Ludlow Castle,10764
DC3654,10765,28.676749,77.224848,Exchange Store / Civil Lines Metro Station,10765
DC0016,10766,28.67961,77.22396,IP College,10766
U02628,10767,28.683783,77.222172,Old Secretariat (Postal Account Office),10767
DC0017,10768,28.687802,77.221442,Vidhan Sabha Metro Station,10768
U02609,10769,28.690613,77.221168,Khyber Pass,10769
U02571,10770,28.693646,77.218432,Mall Road,10770
U02504,10771,28.695213,77.214096,Vishwa Vidyalaya Metro Station,10771
U02461,10772,28.696149,77.211705,INS Hostel,10772
U02380,10773,28.698223,77.207504,GTB Nagar / Haqiqat Nagar,10773
U02663,10774,28.638657,77.224181,Shivaji Park,10774
U02634,10775,28.632651,77.223088,Super Bazar,10775
U02543,10776,28.628567,77.216783,Palika Kendra,10776
U02492,10777,28.625507,77.21432,P S Parliament / Jantar Mantar,10777
U02478,10778,28.620515,77.212714,Aakashwani Bhawan,10778
U02497,10779,28.615,77.2124,Krishi Bhawan,10779
U02481,10780,28.6126,77.2122,Udyog Bhawan,10780
U02436,10781,28.609631,77.209798,Sunehri Masjid/ G Block,10781
U02456,10782,28.6051,77.2111,Krishan Menon Marg,10782
U99974A,10783,28.599917,77.211317,PS Tuglak Road,10783
U99871,10784,28.5949,77.212,Tughlaq Crescent,10784
U02480,10785,28.586708,77.212779,SJ Madrasa,10785
U02475,10786,28.584236,77.212605,SJ Airport,10786
U02441,10787,28.5759,77.2102,INA Colony,10787
U02417,10788,28.574012,77.209568,Kidwai Nagar,10788
U02381,10789,28.5627,77.2077,Yusuf Sarai,10789
U02362,10790,28.5572,77.2068,Green Park,10790
U02326,10791,28.5529,77.2051,Hauz Khas,10791
U02290,10792,28.5498,77.2038,Padhmini Enclave,10792
U02258,10793,28.5462,77.2025,IIT Gate,10793
U02279,10794,28.543924,77.205014,Panchsheel Club / Sarvpriya Vihar,10794
U02429,10795,28.5428,77.209567,Bhavishya Nidhi Enclave,10795
U02460,10796,28.5370086315091,77.2098981836701,Begumpur (Malviya Nagar),10796
U02439,10797,28.535406,77.208553,Malviya Nagar,10797
U02302,10798,28.5326,77.2046,Aurobindo College,10798
U02223,10799,28.530317,77.199633,Geetanjali Enclave,10799
U02243,10800,28.529417,77.2014,PNB Geetanjali,10800
U02287,10801,28.528,77.205,Saket A Block (Malviya Nagar Metro Station),10801
U02412,10802,28.5282,77.2091,Press Enclave,10802
U02462,10803,28.5285,77.2119,HaujRani / MaxHospital,10803
U02519,10804,28.5297,77.2158,Hauj Rani,10804
U02561,10805,28.530183,77.21835,Khirki Village,10805
DC3716,10806,28.53145,77.223883,PSRI,10806
U02718,10807,28.532283,77.22695,Vocational College,10807
U99870,10808,28.53305,77.230667,Sheikh Sarai Phase II,10808
U02793PV,10809,28.527,77.231201,Pushpa Bhawan,10809
U02762,10810,28.524690785977,77.2303766300063,Madangir DDA Flats,10810
U02722,10811,28.5150204,77.2295507,Ambedkar Nagar Terminal,10811
U02761,10812,28.515267,77.2284,Ambedkar Nagar Depot,10812
U02834,10813,28.514,77.2344,Khanpur Extension / Devli Xing,10813
U02888,10814,28.5129,77.2389,Vayu Sena Bad (Tigri),10814
U02957,10815,28.5124,77.2433,Batra Hospital / Satya Narayan Mandir,10815
U03033,10816,28.512167,77.248667,Hamdard Nagar / Sangam Vihar,10816
U02349,10817,28.6214,77.2064,Kendriya Terminal (Pt. Pant Marg),10817
U02322,10818,28.621017,77.205283,Kendriya Terminal / Gurudwara Rakab Gunj,10818
U02277,10819,28.6222,77.2031,Talkatora Road,10819
U02149,10820,28.6223961,77.1965567,Dr. RML Hospital,10820
U02118,10821,28.6212541,77.1942054,Talkatora Stadium Garden,10821
U02072A,10822,28.611,77.1908,Sardar Patel Road Xing (11 Murti),10822
U02039,10823,28.6078,77.1891,Palika Kutumb,10823
U01951,10824,28.603917,77.1845,Bhartiya Sadhu Samaj,10824
U01860,10825,28.600783,77.1785,Railway Colony (Sardar Patel Marg),10825
U01826,10826,28.5994,77.1758,Bapu Dham,10826
U01765,10827,28.597,77.1713,Officer Enclave S.P Marg,10827
U01635,10828,28.592721,77.163492,Dhaula Kuan,10828
U01578,10829,28.592403,77.159084,Golf Club,10829
DC3649,10830,28.59572,77.150948,R R Line,10830
U01356,10831,28.6002,77.139733,S O Flats Carriappa Marg,10831
NS0257,10832,28.60265,77.133483,Thimiyan Park,10832
U01208,10833,28.6051995,77.1265753,Kirbi Place,10833
U01163,10834,28.606633,77.123233,Supply Depot,10834
U01080,10835,28.6104,77.1138,Janak Setu,10835
U01023,10836,28.613845,77.106342,Lajwanti Garden,10836
U01004A,10837,28.610606,77.10369,D Block Janak Puri,10837
U00965,10838,28.609254,77.0996,SagarPur Vashisht park,10838
U00953,10839,28.610901,77.098786,Desu Colony Janakpuri,10839
U00938J5A,10840,28.6155,77.097,C5A Janakpuri,10840
U00863,10841,28.61525,77.092367,Central Market C3 Janakpuri,10841
U00764,10842,28.6216,77.0841,C2 Janakpuri,10842
DC3692,10843,28.619583,77.079267,A3 Janak Puri,10843
U00685,10844,28.617945,77.077135,Janak Puri,10844
U00653,10845,28.619637,77.073604,Jivan Park,10845
U00624,10846,28.621389,77.070002,Tilak Pul,10846
U00603,10847,28.624,77.068009,Uttam Nagar /#REF!  Janak Puri,10847
U00918,10848,28.6363235433356,77.0957438603281,Tilak Nagar Terminal,10848
U00555,10849,28.623129,77.061189,Uttam Nagar,10849
U00535,10850,28.621893,77.056719,Prem Nagar,10850
U00501,10851,28.621079,77.052669,Om Vihar,10851
U00463,10852,28.620222,77.04552,Nawada,10852
U00452,10853,28.6200493466924,77.039162961751,Mohan Garden,10853
DC3541,10854,28.619263,77.033731,Sewak Park Dwarka More Metro Station,10854
U00213,10855,28.609477,76.983288,Police Station Najafgarh,10855
U00193,10856,28.6114911357481,76.9779095460606,Dhansa Stand,10856
DC3547,10857,28.610938,76.97401,Khera More,10857
U00155,10858,28.6091779240052,76.967157118307,Nanak Piyau,10858
U00112,10859,28.6085418137362,76.958778258301,Indra Service Station,10859
DC4745,10860,28.6081146125039,76.9511722513845,Mitraon Crossing,10860
U00085,10861,28.6080681907939,76.9473243300908,Mitraon Village,10861
DC4819,10862,28.83096,77.199706,Jhingola Village,10862
DC4820,10863,28.831184,77.18802,Jhingola Crossing,10863
DC4821,10864,28.834531,77.182394,Akbar Pur Majra,10864
DC4822,10865,28.832511,77.179184,Akbar Pur Majra Crossing,10865
DC4823,10866,28.82942,77.178662,Bakhtawar Pur Garhi,10866
DC4824,10867,28.825833,77.174563,Bakhtawar Pur Primary School,10867
DC4825,10868,28.82208,77.171555,Bakhtawar Pur Village,10868
DC4826,10869,28.818615,77.166323,Triveni Colony,10869
DC4827,10870,28.814533,77.161217,Bakhtawar Pur School,10870
DC4828,10871,28.80336,77.143775,Palla More,10871
DC4831,10872,28.793717,77.142333,Mcd Store,10872
U99993,10873,28.7252,77.1634,Jahangirpuri GT Road,10873
U02406,10874,28.667228,77.209036,Ice Factory (Rani Jhansi Road),10874
U03551,10875,28.493092,77.303489,Badarpur Border (T),10875
U03996A,10876,28.497367,77.302117,Jaitpur Mor,10876
U03519,10877,28.499178,77.299004,Badarpur M B Road / Rajiv Gandhi Stadium,10877
U03465,10878,28.500583,77.293883,Prehlad Pur,10878
U03434,10879,28.501567,77.289765,Surajkund Crossing,10879
U03361,10880,28.5023,77.2833,Lal Kuan,10880
U03331,10881,28.5036,77.2801,Prem Nagar,10881
DC0138,10882,28.5061,77.27835,Maa Anand Mayee Marg,10882
U99988A,10883,28.51095,77.280917,Tehkhand Depot DTC,10883
DC5101,10884,28.801906,77.096118,Holambi Kalan Terminal,10884
DC5099,10885,28.799903,77.096104,Holambi Khurd,10885
DC5097,10886,28.795403,77.097915,Holambi Khurd DRID College,10886
DC5095,10887,28.79584,77.11041,Minda Farm,10887
U01868,10888,28.707667,77.180271,Azadpur Terminal,10888
U01966,10889,28.706127,77.185301,Model Town III,10889
U02070,10890,28.704282,77.190629,Model Town II,10890
U02122,10891,28.703017,77.193837,Alpana Cinema (Model Town Mtr Stn),10891
U02263,10892,28.699589,77.202973,New Police Line,10892
U02678,10893,28.676617,77.225033,Exchange Store / Civil Lines Metro Station,10893
U02862,10894,28.65808,77.236946,Red Fort,10894
U02884,10895,28.650847,77.238458,Jama Masjid,10895
U02922,10896,28.644152,77.240425,Darya Ganj Golcha Cinema,10896
U02926,10897,28.639959,77.238071,Delhi Gate (JLN Marg),10897
U02851,10898,28.6401,77.234817,LNJP Hospital,10898
U02779,10899,28.641133,77.229676,Zakir Husain College,10899
U02738,10900,28.6421,77.22785,JLN Marg,10900
U02706,10901,28.640867,77.225733,Vivekanand Marg / Minto Road,10901
DC4960,10902,28.6977936898634,77.0278941468983,Rani Khera Depot Crossing,10902
U99813,10903,28.704236,77.027661,Rani Khera Village,10903
U99789,10904,28.709239,77.027741,Rani Khera School / Bhagya Vihar,10904
U99809,10905,28.712817,77.027833,Mubarak Pur Crossing,10905
U00401,10906,28.731617,77.03235,Karala Crossing,10906
U00426,10907,28.731583,77.036983,Karala Village,10907
U99700,10908,28.730801,77.039803,Karala School,10908
U00466,10909,28.7288,77.0456,Rama Vihar,10909
U00482,10910,28.727633,77.04895,Sukhbeer Nagar,10910
U00516,10911,28.726567,77.053367,Karala Patshala,10911
U99608,10912,28.724983,77.058433,Rajeev Nagar,10912
U99614,10913,28.721201,77.065981,Begum Pur (Kanjhawala Road),10913
U00621,10914,28.7188,77.069767,Rohini Sec-21,10914
U00657,10915,28.71589,77.07422,Poothkalan,10915
U00683,10916,28.714336,77.077075,Pooth Kalan,10916
DC3748,10917,28.712372,77.080713,Brahm Shakti Hospital,10917
U00763,10918,28.706783,77.084171,Buddh Vihar,10918
DC3749,10919,28.706566,77.084098,Buddh Vihar,10919
U00831,10920,28.702762,77.089612,Mangol Puri Y Block,10920
U00892,10921,28.700117,77.094277,Mangol Pur Khurd,10921
U00931,10922,28.698384,77.097225,Avantika Xing,10922
U00961,10923,28.695671,77.101095,Mangolpur Kalan Village,10923
U01021,10924,28.694414,77.106315,Mangol Pur School (Outer Ring Road),10924
U01039,10925,28.695494,77.108823,Rohini Depot III,10925
U01060,10926,28.696609,77.112857,Puspanjali Enclave Rohini Depot 3,10926
U01093,10927,28.697446,77.115993,Kali Mata Mandir,10927
U01126,10928,28.698196,77.119004,Deepali Chowk Ring Road,10928
U01188,10929,28.700141,77.12472,Saraswati Vihar C Block,10929
U01248,10930,28.701935,77.128048,Madhuban Chowk Outer Ring Road,10930
U01289,10931,28.708375,77.134799,RU Block Power House,10931
U01331,10932,28.71064,77.13667,Pitampura RU Block,10932
U01354,10933,28.715019,77.138989,Uttri Pitam Pura,10933
U01358,10934,28.71649,77.13932,Pitam Pura BV Block,10934
U01372,10935,28.72155,77.140383,Haidarpur Water Works,10935
U99995,10936,28.72515,77.14229,PS Badli,10936
DC5131,10937,28.727265,77.143241,Jail Road Rohini Sec 18,10937
DC5129,10938,28.731937,77.140125,Badli Village,10938
DC5127,10939,28.735794,77.137389,Rohini Sec 18 Block,10939
DC5125,10940,28.73884,77.135808,Rohini Sec 18,10940
U02000,10941,28.526517,77.18605,Qutub Minar,10941
U02048,10942,28.5283,77.1897,T B Hospital,10942
U02090,10943,28.529833,77.192117,DDA Flats Lado Sarai,10943
DC5148,10944,28.532964,77.195504,PTS,10944
DC5149,10945,28.535351,77.196849,MMTC / Adhchini Village,10945
DC5150,10946,28.537823,77.19807,Adhchini Village,10946
DC5151,10947,28.541141,77.1995,Mothers International School,10947
DC5152,10948,28.543571,77.20071,IIT Gate,10948
U02253,10949,28.54585,77.201967,IIT Gate (Aurobindo Marg),10949
U02281,10950,28.5492,77.2034,Padmani Enclave,10950
U02315,10951,28.553,77.2049,Hauz Khas,10951
U02357,10952,28.558583,77.206733,Green Park,10952
U02377,10953,28.5626,77.2074,Yusuf Sarai,10953
U02379,10954,28.56725,77.207733,Safdurjung Hospital / AIIMS,10954
U02416,10955,28.575667,77.209735,Kidwai Nagar,10955
U02471,10956,28.584411,77.212295,SJ Airport,10956
U02476,10957,28.588591,77.212721,S J Madrasa,10957
U02502,10958,28.593162,77.21433,Prithvi Raj Road,10958
U02553,10959,28.597353,77.21819,Prithvi Raj Road Crossing,10959
U02554,10960,28.602055,77.217749,Claridges Hotel,10960
U02559,10961,28.611677,77.218376,National Museum,10961
U02563,10962,28.614678,77.218542,National Archives,10962
U02576,10963,28.617737,77.218752,Windsor Place,10963
DC5153,10964,28.623775,77.219113,Western Court,10964
U02584,10965,28.62853,77.219448,Indian Oil Bhawan,10965
U02654,10966,28.638674,77.223986,Shivaji Park,10966
U02697,10967,28.64145,77.226006,Vivekanand Marg / Minto Road,10967
U02712,10968,28.643042,77.226021,PS Kamla Market,10968
U02703,10969,28.644083,77.22405,Ajmeri Gate / Kamla Market,10969
U01315,10970,28.667414,77.135796,Punjabi Bagh Terminal,10970
U01261,10971,28.663553,77.131207,Punjabi Bagh Club,10971
U01233,10972,28.658396,77.128719,ESI Hospital,10972
U01196,10973,28.654765,77.125441,Rajdhani College / Raja Garden,10973
U01211,10974,28.645609,77.127065,Rajouri Garden Market,10974
U01257,10975,28.638603,77.129843,Mayapuri Chowk (Ring Road),10975
U01308,10976,28.627517,77.134183,Naraina Vihar,10976
U01325,10977,28.618591,77.136612,Naraina Village,10977
NS0253,10978,28.612925,77.137272,COD Ring Road,10978
U01373,10979,28.607394,77.141632,Barar Square,10979
U99892A,10980,28.6053666666667,77.1474333333333,Garrison Engg.,10980
U99893A,10981,28.60415,77.155333,RR Line,10981
U01628,10982,28.599544,77.162493,Dhaula Kuan (Ring Road),10982
DC0013,10983,28.588732,77.170023,Satya Niketan,10983
U01778,10984,28.5851033,77.1724418,Gurudwara Moti Bagh,10984
U01805,10985,28.581943,77.174262,South Moti Bagh (Ring Road),10985
U01817,10986,28.577432,77.173731,South Moti Bagh,10986
U01777,10987,28.5757,77.1724,R. K. Puram Sec-12,10987
U01797,10988,28.573643,77.173644,Sangam Cinema,10988
DC3668,10989,28.570222,77.17311,RK Puram Sec-10,10989
U01832,10990,28.566602,77.176331,Mohan Singh Market,10990
U01848,10991,28.564697,77.178246,R K Puram Sec-1 2,10991
U01852,10992,28.563268,77.178557,RK Puram Sec 1,10992
U01835,10993,28.561227,77.176315,R K Puram Nab,10993
U01800,10994,28.558583,77.173811,Munirka Village (T),10994
U01792,10995,28.556991,77.174527,Munirka Family Planning,10995
U01847,10996,28.555501,77.17666,Munirka DDA Flats,10996
U01900,10997,28.552791,77.18088,ISTM,10997
U01980,10998,28.550003,77.185541,IIT Hostel,10998
U02043,10999,28.548571,77.1891,Jia Sarai,10999
U02151,11000,28.545957,77.196984,IIT Gate,11000
U02798PB,11001,28.5281528237937,77.2313535422157,Pushpa Bhawan,11001
DC0134,11002,28.528442,77.255737,DDA Flats Kalkaji,11002
U03132,11003,28.527958,77.257446,DDA Flats Kalka Ji,11003
U03145,11004,28.530729,77.258493,DDA Market kalka Ji,11004
U03150,11005,28.531872,77.258961,DDA Flats Kalka Ji,11005
U03154E,11006,28.533575,77.259665,Govindpuri Ext Gali No 16,11006
U03155,11007,28.534824,77.26013,Rampuri Gali No 13,11007
U03163,11008,28.537641,77.261185,Govindpuri Gali No 5,11008
U03164,11009,28.538625,77.261545,Ram Puri / Govind Puri,11009
U03166,11010,28.539533,77.261894,Govind Puri,11010
U03182,11011,28.545117,77.263917,Govind Puri Metro Station,11011
U03173,11012,28.547767,77.262833,Kalkaji Mandir (MaaAnandmayeeMarg),11012
U03180,11013,28.551166,77.263849,Kalkaji Mandir,11013
U03183,11014,28.552086,77.264157,NSIC,11014
U03195,11015,28.555533,77.265167,Laghu Udyog Sansthan(ModiMill),11015
U03159,11016,28.560733,77.260617,SNPD,11016
U03141,11017,28.561933,77.258033,East of Kailash C-Block,11017
U03106,11018,28.561917,77.255567,East of Kailash B-Block,11018
U03046,11019,28.5621,77.2512,Garhi Gaon,11019
U03041LN,11020,28.5643,77.2501,Lajpat Nagar Crossing,11020
U03062,11021,28.567384,77.252931,PG DAV College / Sri Niwaspuri,11021
U03074,11022,28.569103,77.253865,Nehru Nagar,11022
U03134,11023,28.573367,77.257533,Ashram (Hari Nagar),11023
U02877,11024,28.601413,77.23788,Golf Club / Sunder Nagar,11024
U99849,11025,28.60575,77.2371,Kaka Nagar,11025
DC4456,11026,28.558043,76.974025,Pandwala Crossing,11026
DC4446,11027,28.543431,76.970745,Daulat Pur Crossing,11027
DC4774,11028,28.522,76.966004,Jhatikra Village,11028
U00987,11029,28.6239,77.1017,Hari Nagar Depot,11029
U01026,11030,28.6251,77.106867,DA Block Hari Nagar,11030
U01056,11031,28.6252,77.1108,Hari Nagar Shaheed Pawan Sahni Chowk,11031
U01053,11032,28.628,77.1107,DDU Hospital,11032
U01063,11033,28.63145,77.111967,Beriwala Bagh,11033
U01082,11034,28.631,77.1149,Swarg Ashram,11034
U01122,11035,28.6309,77.1196,LIG Flats,11035
DC3909,11036,28.630683,77.124267,Hari Nagar (Mohan Mandir) Mayapuri,11036
U01524,11037,28.650133,77.15335,Pandav Nagar,11037
U99983A,11038,28.643211,77.182029,Telephone Exchange Karol Bagh,11038
U02310,11039,28.64165,77.204717,Panchkuian Road Banwari Lal Hospital,11039
U02306,11040,28.639967,77.204483,Balmiki Mandir Marg,11040
U02276,11041,28.6374316,77.2029278,PS Mandir Marg,11041
U03023,11042,28.620212,77.248532,Indraprastha Depot,11042
U03015,11043,28.624567,77.247083,IP Power House (ITO Ring Road),11043
U03048,11044,28.6283,77.2514,Delhi Secretariat,11044
U03157,11045,28.628317,77.26065,Rainy Well,11045
U03293,11046,28.6297,77.277067,Laxmi Nagar / Shakarpur Crossing,11046
U03317,11047,28.627433,77.279283,Shakarpur School Block,11047
U03379,11048,28.621017,77.285233,Ganesh Nagar,11048
U03393,11049,28.6191,77.286333,Mother Dairy,11049
U03407,11050,28.6164001,77.2881001,Patparganj,11050
U03431,11051,28.6147,77.2903,P S Pandav Nagar,11051
U03464,11052,28.6136,77.2941,Shashi Garden Xing,11052
U03474,11053,28.6133,77.2956,Pocket-5 Mayur Vihar Ph-1,11053
U03498,11054,28.613,77.2977,ITI Khichiripur,11054
U03539,11055,28.6132,77.302,Kotla Village,11055
U03604,11056,28.612817,77.306183,Trilokpuri 13 Block,11056
U03637,11057,28.612983,77.3125,Chand Cinema,11057
U03674,11058,28.613567,77.316317,Super Bazar,11058
U03706,11059,28.614764,77.318894,Kalyan Puri Crossing (Chand Cinema Road),11059
U03745,11060,28.613051,77.322989,Kondali Old,11060
U03711,11061,28.60875,77.32005,Dallu Pura,11061
U03734,11062,28.605316,77.322685,Fire Station,11062
U03766,11063,28.6018,77.32735,Mayur Vihar Phase 3 Crossing,11063
U03780,11064,28.602967,77.329133,New Kondali A1 Crossing,11064
U03802,11065,28.606133,77.333967,Bharti Public School,11065
U03809,11066,28.608717,77.33715,Mayur Vihar Phase III A1 Block,11066
U03822,11067,28.611833,77.339833,CRPF Camp,11067
DC3942,11068,28.6182677175226,77.3358489865978,Mayur Vihar Phase III (T) Paper Market,11068
DC5453,11069,28.7866,77.05903,Ganga Toli Mandir Bawana,11069
DC5454,11070,28.79043,77.05225,Sec 1 / 2 Bawana Indst Area,11070
DC4561,11071,28.803302,77.042627,DSIDC Bawana Sec 2,11071
U00420,11072,28.8018412,77.03929,Bawana Soap Factory,11072
DC4562,11073,28.80095,77.03738,Bawana Dispensary,11073
U99646,11074,28.799973,77.03552,Bawana Village Chowk,11074
DC4564,11075,28.797678,77.034438,Primary School,11075
DC4565,11076,28.7977933,77.031678,Panchayat Ghar,11076
DC4566,11077,28.794782,77.030053,Ishwar Colony,11077
DC4568,11078,28.7849829,77.024146,Bajit Pur Crossing,11078
DC4569,11079,28.779365,77.021882,Shri Krishna Gaushala,11079
DC4570,11080,28.7659719123008,77.0165946162251,Prem Piyau,11080
DC4572,11081,28.751341,77.014504,Chandpur Kalan Crossing,11081
DC4573,11082,28.740427,77.00954,SDM Court Kanjhawala,11082
U99795A,11083,28.73747,77.00814,Kanjhawala Chowk,11083
U99794,11084,28.73544,77.01226,Shivam Plywood,11084
U00372,11085,28.733977,77.020936,Radha Swami Satsang / Rupali Enclave,11085
DC3747,11086,28.73345,77.02515,Shiv vihar/Bheem chowk,11086
U00665,11087,28.7034485401508,77.0750093121837,Sultanpuri Terminal,11087
DC3545,11088,28.6117352637536,76.985665896004,Najafgarh Delhi Gate,11088
U00284,11089,28.584508,76.995742,Jhatikara Crossing,11089
DC3972,11090,28.577927,76.996696,Rewla Taj Pur More,11090
U00299,11091,28.565889,77.000619,Chhawla School,11091
DC4462,11092,28.561281,77.001954,Chhawla Village Kangan Heri Road,11092
DC4448,11093,28.5482401565663,76.9886899753303,Kangan Heri I,11093
DC4445,11094,28.5441968970541,76.970716524097,Daulat Pur Crossing,11094
DC4455,11095,28.5584955803388,76.9739450363129,Pandwala Crossing,11095
U03742,11096,28.698566,77.322121,Harsh Vihar Terminal,11096
U03661,11097,28.695833,77.315364,Gagan Cinema,11097
U03673,11098,28.692839,77.316134,Sunder Nagri,11098
U03731,11099,28.688367,77.319753,Anand Gram,11099
U03719,11100,28.688794,77.321599,Anand Gram Kusht Ashram,11100
DC3795,11101,28.691467,77.324817,Tahir Pur,11101
U03767,11102,28.6931,77.3274,DLF More,11102
U03790,11103,28.688383,77.330351,Shalimar Garden Crossing,11103
U03773,11104,28.685597,77.331404,New Seema Puri Depot Cluster,11104
U02619,11105,28.66608,77.22161,Mori Gate Terminal,11105
U02162,11106,28.682636,77.197448,Roop Nagar (GT Road),11106
U02133,11107,28.6849666666667,77.1959333333333,Gur Mandi,11107
U02111,11108,28.688886,77.192984,Rana Pratap Bagh,11108
U02076,11109,28.6908,77.1918,Gurudwara Nanak Pyau,11109
U02017,11110,28.6956,77.1878,State Bank Colony,11110
U01996,11111,28.6975,77.1862,Telephone Exchange,11111
U01955,11112,28.6996,77.1845,Gujranwala Town,11112
U01926,11113,28.7017,77.1828,Bara Bagh,11113
DC4803,11114,28.7729,77.14305,Nangli Puna,11114
DC4804,11115,28.777717,77.142033,Jain Mandir,11115
DC4805,11116,28.78185,77.141117,Budhpur GT Road,11116
DC4806,11117,28.79315,77.139833,Bdo Office,11117
DC4807,11118,28.796783,77.139433,Alipur Village GT Road,11118
DC4809,11119,28.803533,77.143833,Palla More,11119
DC4810,11120,28.814633,77.161167,Bakhtawar Pur School,11120
DC4811,11121,28.81865,77.166167,Triveni Colony,11121
DC4812,11122,28.822333,77.171717,Bakhtawar Pur Village,11122
DC4813,11123,28.825933,77.174667,Bakhtawar Pur Primary School,11123
DC4814,11124,28.82955,77.178633,Bakhtawar Pur Garhi,11124
DC4815,11125,28.832525,77.179075,Akbar Pur Majra Crossing,11125
DC5232,11126,28.85784,77.184509,Dahisara Border,11126
U00788,11127,28.5893166666667,77.08635,Manglapuri / Palam Village,11127
DC3630,11128,28.583939,77.091489,Dwarka Flyover,11128
U00809,11129,28.581464,77.095955,Palam Colony Flyover,11129
DC3632,11130,28.57969,77.101749,Prehlad Pur,11130
DC3633,11131,28.577578,77.108753,Indian Oil Station,11131
DC3634,11132,28.575302,77.117054,IOL,11132
DC3635,11133,28.569553,77.123517,Palam Airport  / IGI Airport T1297,11133
U01285,11134,28.5682,77.1298,Palam More,11134
DC3638,11135,28.5695,77.1326,NHW 8 Crossing,11135
U00761,11136,28.5747478912467,77.1409864689651,Kendriya Vidhyalaya APS Colony,11136
U01460,11137,28.575319,77.147055,APS Colony / Arjun Path,11137
U01502,11138,28.574355,77.151709,Subroto Park (Arjun Path),11138
U99601,11139,28.568464,77.164829,Swami Malai Mandir,11139
U01710,11140,28.563043,77.168215,R K Puram Sec-5,11140
U01730,11141,28.560598,77.170161,R K Puram Sec-5,11141
U01767,11142,28.558899,77.171968,Vasant Vihar Depot,11142
U02536,11143,28.543008,77.216415,Sadhna Enclave,11143
DC3667,11144,28.542843,77.218556,North Point (Nursing Home),11144
U02673,11145,28.542403,77.224741,Swami Nagar,11145
U02853,11146,28.540839,77.235989,Masjid Moth,11146
U02870,11147,28.541702,77.238438,Savitri Cinema,11147
U02938,11148,28.542779,77.241391,OS Communications,11148
U02964,11149,28.543647,77.243651,Pumposh Enclave,11149
U03089,11150,28.548383,77.255294,Nehru Place Terminal,11150
DC5068,11151,28.85772,77.10377,Sec A 5 Crossing Narela,11151
U99792Z,11152,28.73144,77.03198,Karala Crossing,11152
U99658,11153,28.7164,77.0282,Madanpur Dabas,11153
U99819Z,11154,28.712614,77.028059,Mubarak Pur Crossing,11154
U99790,11155,28.70908,77.02799,Rani Khera School / Bhagya Vihar,11155
U99813A,11156,28.70358,77.02789,Rani Khera Village,11156
DC4959,11157,28.698024,77.027903,Rani Khera Depot Crossing,11157
U99868,11158,28.643002,77.223707,New Delhi Railway Station Gate 2,11158
DC3597,11159,28.7143,77.172217,New Sabzi Mandi,11159
U99882,11160,28.725467,77.162833,Jahangirpuri GT Road,11160
U00305,11161,28.561283,77.002168,Chhawla Village,11161
U00321,11162,28.557759,77.004508,Sumesh Vihar,11162
U00330,11163,28.554147,77.006475,BSF Camp Chhawla,11163
U00344,11164,28.547741,77.00935,BSF Campus Chhawla,11164
DC3960,11165,28.543378,77.012818,Toll Tax Post,11165
U00369,11166,28.54218,77.017987,Bamnoli Power Station,11166
U00392BM,11167,28.53919,77.030335,Bamnoli Crossing,11167
DC3963,11168,28.533823,77.059292,Shri Golok Dham Bijwasan School,11168
DC3965,11169,28.527671,77.076297,Kapashera Village Bijwasan Road,11169
U99912A,11170,28.537955,77.093708,Samalkha Crossing,11170
DC4187,11171,28.537233,77.102493,Uppal Hotel,11171
U99837,11172,28.535299,77.10847,Shiv Murti (NH-8),11172
U01113,11173,28.543865,77.117712,Rang Puri (NH-8 Circle),11173
U01178,11174,28.548041,77.125184,Mahipal Pur (NH-8),11174
U01282,11175,28.566684,77.133985,Shankar Vihar NH-8,11175
U01387,11176,28.579967,77.144817,APS Colony/ Jharera Gaon,11176
U01510F,11177,28.584133,77.146033,Air Force HQ / Subroto Park,11177
U01510A,11178,28.590067,77.155817,RR Hospital,11178
U02237BP,11179,28.61538,77.17517,Budha Jayanti Park,11179
U02237RN,11180,28.62339,77.18004,R Block Rajinder Nagar,11180
NS0391,11181,28.632683,77.18875,Ridge Road,11181
U02237RS,11182,28.6409235,77.1949641,Ravinder Rangshala,11182
DC3845,11183,28.643833,77.1969,Karol Bagh Gurgaon Stand,11183
U02647,11184,28.6448,77.223733,Kamla Market / Ajmeri Gate,11184
U02714,11185,28.6429,77.2267,PS Kamla Market,11185
U01827,11186,28.641,77.1759,Rajender Nagar,11186
U01864,11187,28.6391,77.179017,Shankar Road,11187
U01944,11188,28.6366,77.183683,New Rajender Nagar,11188
U02064,11189,28.6321026,77.1902553,Upper Ridge Road,11189
U02145,11190,28.6263,77.1965,Talkatora Stadium,11190
U02187,11191,28.624591,77.198013,RML Hospital,11191
U02266,11192,28.623281,77.201586,Talkatora Road,11192
U02323,11193,28.621164,77.20521,Gurudwara Rakab Gunj,11193
U02346,11194,28.621545,77.206233,Kendriya Terminal (Pt. Pant Marg),11194
U02354,11195,28.62548,77.2065,NDPO,11195
U99767,11196,28.628391,77.209583,Gurudwara Bangla Sahib,11196
DC0004,11197,28.630278,77.213782,Hanuman Mandir / Shivaji Stadium,11197
U02645,11198,28.6306,77.2238,Statesman House,11198
U02683,11199,28.6297,77.2252,Barakhamba Metro Station,11199
U02753,11200,28.6278,77.2285,Modern School,11200
U02832,11201,28.6258,77.2343,Mandi House,11201
U02892,11202,28.6255,77.2397,Tilak Bridge,11202
U02962,11203,28.628183,77.24515,ITO,11203
U03286,11204,28.630967,77.277767,Laxmi Nagar Metro Station,11204
U03353,11205,28.633765,77.282121,Shakarpur,11205
U03382,11206,28.635667,77.284783,Shakarpur Crossing,11206
U03395,11207,28.637025,77.287308,Nirman Vihar Metro Station,11207
U03447,11208,28.639417,77.29195,Sawarthya Vihar,11208
U03482,11209,28.642483,77.29635,New Rajdhani Enclave,11209
U03495,11210,28.643217,77.297317,KarKarDooma Crossing,11210
U03594,11211,28.636183,77.307233,Hassanpur Depot,11211
U03621,11212,28.6363,77.3103,Hassanpur Village,11212
U03651,11213,28.64086,77.315388,TELCO Gazipur,11213
U03667,11214,28.64195,77.315817,Gazipur Depot,11214
U03104,11215,28.511683,77.255467,Air Force Station,11215
U03136,11216,28.511733,77.257867,Air Force Station,11216
U03192,11217,28.509283,77.265,Tughlaqabad Village,11217
U03224,11218,28.50825,77.269017,Kaya Maya Hospital,11218
U03287,11219,28.5058,77.276283,MB Road,11219
DC3901,11220,28.800311,77.035267,Bawana Village,11220
U00386,11221,28.803667,77.028517,Bawana Depot,11221
DC3903,11222,28.806442,77.022952,PS Bawana,11222
U00359,11223,28.808879,77.014789,Dariyapur Kalan School Bawana,11223
DC4894,11224,28.81163,77.010844,Bajit Pur Crossing,11224
DC5040,11225,28.808899,77.007976,Nangal Thakran,11225
DC5041,11226,28.808368,77.003341,Bajitpur Village,11226
DC5042,11227,28.803187,76.997871,Bajitpur Mandir,11227
DC5043,11228,28.805048,76.976832,Katewara Village,11228
DC4902,11229,28.800851,76.961916,Qutub Garh Village (T),11229
DC4903,11230,28.790469,76.962747,Jat Khor Crossing,11230
DC4685,11231,28.788222,76.962731,Divya Dham Ashram,11231
DC4687,11232,28.77775,76.961383,Punjab Khor Village,11232
DC4688,11233,28.7734,76.9621,Punjab Khor Village,11233
DC4689,11234,28.767583,76.964667,Balaji Enclave,11234
DC4691,11235,28.755728,76.968795,Tatesar Village,11235
DC4692,11236,28.75315,76.9724,Jonti Village,11236
DC5211,11237,28.717778,76.961366,Nizampur Village,11237
DC5205,11238,28.710492,76.980403,Savda Village,11238
U00289,11239,28.696216,76.99782,Ghevra Village,11239
U00273,11240,28.692527,76.994074,FCI Ghevra,11240
U00275,11241,28.686356,76.994557,Ghevra Crossing / Ghevra Metro Station,11241
U00301,11242,28.68493,77.00089,Hiran Kudna Crossing,11242
U00362,11243,28.683909,77.012607,Mile Stone Factory,11243
U00379,11244,28.683407,77.018819,Shiv Shanker Dharam Kata,11244
U00393,11245,28.682503,77.029813,Mundka Village (Metro Station),11245
U00419,11246,28.682468,77.034963,Mundka Village Crossing,11246
U00446,11247,28.682422,77.040981,Swarn Park,11247
U00481,11248,28.682306,77.048765,Rajdhani Park,11248
U00511,11249,28.682261,77.054315,Qamruddin Nagar Terminal,11249
DC3549,11250,28.608237,76.947333,Mitraon Village,11250
U00298,11251,28.631627,77.000417,Jai Vihar,11251
U00306,11252,28.633436,77.002335,AirForce Station (BaniCamp),11252
U00336,11253,28.638588,77.00799,Baprola School,11253
U00350,11254,28.640866,77.011332,Baprola Village,11254
U00364,11255,28.643924,77.016886,BakkarWala Crossing,11255
U00374,11256,28.646299,77.021332,Chanchal Park,11256
DC3877,11257,28.649733,77.027229,TilangPur Kotla,11257
U99750A,11258,28.652384,77.032501,BrahmPuri Colony,11258
DC3874,11259,28.653618,77.035431,PS Ranhola,11259
DC3875,11260,28.654766,77.037987,Ranhola II,11260
U00444,11261,28.656099,77.040649,Ranhola Village,11261
U00479,11262,28.658484,77.043816,Ranhola Extension,11262
U00500,11263,28.6619,77.048782,Rishal Garden,11263
U00510,11264,28.664534,77.052635,Nilothi Crossing,11264
U00524,11265,28.667833,77.055183,ShivRam Park,11265
U00534,11266,28.670883,77.057747,Narain DharamKanta,11266
U00545,11267,28.673183,77.0597,Aman Puri,11267
U00565,11268,28.6747,77.061096,Kamruddin Nagar,11268
DC3876,11269,28.679882,77.066002,Nangloi Post Office,11269
U00595,11270,28.681618,77.067253,Nangloi,11270
U00615,11271,28.682268,77.068791,Sultan Puri Crossing/Nangloi,11271
U00647A,11272,28.6821,77.072925,Maha Raja Surajmal Stadium,11272
U00716,11273,28.681534,77.078788,Nangloi Bus Stand,11273
U00768,11274,28.681041,77.083855,Inder Enclave,11274
U00828,11275,28.680368,77.08915,Udyog Nagar,11275
U00881,11276,28.679904,77.092102,Peera Garhi Metro Station,11276
U00897,11277,28.6803,77.094398,Peera Garhi Chowk,11277
U00905,11278,28.6881,77.0951,B-Block Mangolpuri,11278
U00847,11279,28.687632,77.091057,Q Block Mangolpuri,11279
U99773,11280,28.5974620723497,76.8950305935825,Mundhela Crossing (Dhansa Road),11280
U99774,11281,28.597788,76.898973,Mata Daan Kaur School,11281
DC4011,11282,28.568773,76.906807,Ujwa Gaon,11282
DC4428,11283,28.534141,76.915295,Ghuman Hera DTC Depot Crossing,11283
DC4792,11284,28.5325784,76.9193509,Ghuman Hera Village Main Road,11284
DC4610,11285,28.550617,77.181617,Ber Sarai,11285
DC4609,11286,28.549483,77.180617,Ber Sarai,11286
DC4608,11287,28.546433,77.179433,School Of Physical Science,11287
DC4607,11288,28.543633,77.1801,FAI,11288
DC4606,11289,28.541867,77.18305,Sanskrit Vidyapeeth,11289
DC4605,11290,28.540483,77.185617,Katwaria Sarai,11290
DC4603,11291,28.537767,77.193833,NCERT,11291
U02505,11292,28.579738,77.212809,Safdurjung Terminal,11292
U02483,11293,28.576682,77.213418,Vikas Sadan,11293
U02473,11294,28.569185,77.21269,AIIMS Ring Road,11294
U02556,11295,28.569014,77.216908,South Extension,11295
U02600,11296,28.568824,77.220684,South Extension,11296
U03186,11297,28.576818,77.264444,Maharani Bagh,11297
U03201,11298,28.581423,77.265917,Bala Sahib Gurudwara,11298
U03139,11299,28.587412,77.259042,Sarai Kale Khan ISBT,11299
U03139HT,11300,28.590355,77.258079,Sarai Kale Khan ISBT,11300
U03221,11301,28.604417,77.269467,Nizamuddin Road Bridge / CPWD Office,11301
DC3669,11302,28.606621,77.274337,Khel Gaon CWG Village,11302
DC0126,11303,28.612617,77.281967,Akshardham Temple / Pusta Crossing,11303
U03375,11304,28.615381,77.284409,Samaspur Jagir Village / Pandav Nagar,11304
DC0128,11305,28.62015,77.295502,Sanjay Lake Trilokpuri,11305
DC0129,11306,28.620916,77.297714,East Vinod Nagar (NH24),11306
DC0130,11307,28.6258,77.31205,Khichdipur,11307
DC0131,11308,28.630367,77.316333,Gazipur NH-24 Crossing,11308
U03662,11309,28.63225,77.315683,Gazipur Village,11309
U00371,11310,28.682984,77.023909,Mundka School,11310
U00593,11311,28.682367,77.059401,Nangloi JJ Colony Lokesh Cinema,11311
U99642,11312,28.682235,77.064393,Nangloi Metro Station,11312
U00919,11313,28.679358,77.096988,Peera Garhi Chowk,11313
U00984,11314,28.678888,77.100623,Paschim Vihar (Super Market),11314
U01020,11315,28.678287,77.105707,Multan Nagar,11315
U01035,11316,28.677509,77.111541,New Multan Nagar,11316
U01084,11317,28.677091,77.114998,Ordinance Depot,11317
U01121,11318,28.676365,77.120477,Madipur JJ Colony,11318
U01168,11319,28.675962,77.123824,Madipur Village,11319
U01225,11320,28.675382,77.128003,SPM College,11320
U01264,11321,28.674917,77.13152,Shivaji Park,11321
U01281,11322,28.674485,77.134949,Maharaja Agrasen Hospital,11322
U01371,11323,28.675484,77.140441,Punjabi Bagh Ring Road,11323
U01402,11324,28.680311,77.142193,Shakurpur Village/Shiv Mandir,11324
U01540,11325,28.694778,77.154843,Netaji Subash Place/Wazirpur Depot,11325
U01574,11326,28.700253,77.158334,Prem Bari Pull,11326
U01610,11327,28.701286,77.161926,Richi Rich,11327
U01655,11328,28.701953,77.164286,Ashok Vihar Crossing,11328
U01720,11329,28.70377,77.169044,Shalimar Bagh,11329
U01851,11330,28.707649,77.178289,Azadpur Terminal,11330
U99850,11331,28.6093,77.23845,High Court,11331
U02826,11332,28.61035,77.233517,Art Gallery,11332
U02759,11333,28.617221,77.228557,Baroda House,11333
U02696,11334,28.6219,77.2258,Bhartiya Vidya Bhawan,11334
U10001,11335,28.6232,77.2251,Max Muller Bhawan,11335
U02626,11336,28.6287,77.2219,Scindia House,11336
U02514,11337,28.633083,77.215446,Shivaji Stadium Terminal,11337
U01808,11338,28.6404,77.1744,East Patel Nagar,11338
U01811,11339,28.63725,77.17465,NPL Colony,11339
U01787,11340,28.6328,77.173,R-Block Rajendra Nagar,11340
U01762,11341,28.6312,77.1712,Janak Vihar,11341
U01692,11342,28.630033,77.166983,Pusa Quarters,11342
U01620,11343,28.6254,77.1622,NASC Dasghara,11343
U01595,11344,28.6228,77.1592,Todapur Village,11344
U01519,11345,28.6262,77.1534,Monitoring  and  Receiving Station,11345
U01490,11346,28.6287,77.1511,Inderpuri A-Block,11346
U01469,11347,28.6336,77.1479,Inder Puri JJ Colony,11347
U01456,11348,28.6372,77.1466,Inder Puri (Krishi Kunj),11348
U01420,11349,28.6395,77.143933,Loha Mandi,11349
U01347,11350,28.6309,77.1383,Payal Cinema,11350
DC3721,11351,28.626762,77.135747,Naraina Vihar / Indra Market,11351
U01230,11352,28.636933,77.1289,Mayapuri Depot Crossing,11352
U01216,11353,28.634183,77.127517,Government Press,11353
U01165,11354,28.6293956874488,77.1235021552078,Metal Forging,11354
DC3910,11355,28.6273471061122,77.1217629599162,BE Block Hari Nagar / ESI Dispensary,11355
U01128,11356,28.625217,77.119867,PS Mayapuri,11356
NS0600,11357,28.6238,77.1188,Bobby Soap,11357
U01097,11358,28.622383,77.117417,Gulab House,11358
U01068,11359,28.618117,77.112183,Zunk Market,11359
DC3915,11360,28.616667,77.110233,Maya Enclave,11360
U00906,11361,28.609892,77.095236,Desu Colony Janak Puri,11361
U00852,11362,28.611016,77.092008,Janak Cinema,11362
DC4708,11363,28.612528,77.088599,Raghu Nagar (Janak Puri),11363
DC4709,11364,28.613809,77.085678,Dabri Crossing (Pankha Road),11364
U00733,11365,28.615822,77.081712,C-2 Janak Puri,11365
U00694,11366,28.617169,77.078734,C-1 Janak Puri,11366
U02565,11367,28.662501,77.217933,Peeli Kothi,11367
U02479,11368,28.664436,77.215266,Tees Hazari Animal Hospital Mori Gate,11368
U02397,11369,28.6629,77.207565,Azad market,11369
U01283,11370,28.674395,77.133887,Maharaja Agrasen Hospital,11370
U01263,11371,28.674684,77.131448,Shivaji Park,11371
U01222,11372,28.675139,77.128069,SPM College,11372
U01183,11373,28.675542,77.125188,Madipur Village,11373
U01117,11374,28.676433,77.118065,Madipur JJ Colony,11374
U01085,11375,28.676881,77.114908,Ordinance Depot,11375
DC3659,11376,28.677279,77.111921,Avtar Enclave / New Multan Nagar,11376
U01018,11377,28.678096,77.10543,Multan Nagar,11377
U00981,11378,28.678694,77.100509,Paschim Vihar Market,11378
DC3660,11379,28.679188,77.096145,Peera Garhi Chowk,11379
U00854,11380,28.679663,77.091766,Peera Garhi Metro Station,11380
U00830,11381,28.679947,77.089403,Udyog Nagar,11381
U00772,11382,28.680544,77.084075,Inder Enclave,11382
U00708,11383,28.681143,77.078896,Jwala Puri / Nangloi Depot,11383
U00677,11384,28.681821,77.07291,Surajmal Stadium,11384
U00614,11385,28.681881,77.069255,Sultanpuri Crossing,11385
U00592,11386,28.681943,77.064075,Nangloi Metro Station,11386
U00576,11387,28.682093,77.058859,Nangloi JJ Colony Lokesh Cinema,11387
DC3711,11388,28.682061,77.054037,Qamruddin Nagar Terminal,11388
U99951,11389,28.584867,77.224367,Lodhi Colony,11389
U02657,11390,28.58745,77.22405,18-Block Lodhi Colony,11390
DC0093,11391,28.592094,77.232747,JLN Stadium / Sunehri Pulla Depot,11391
U02857,11392,28.592517,77.2365,Ishpat Bhawan,11392
U02933,11393,28.586133,77.241067,CGO Complex,11393
U99932,11394,28.5835753,77.2405581,Pant Nagar,11394
U02880,11395,28.573217,77.237783,Defence Colony (Lajpat Nagar Mtr Stn),11395
U02848,11396,28.5691249,77.2354946,MCKR Hospital,11396
U02825,11397,28.5598,77.2336,Central School (KV),11397
U02866,11398,28.559,77.2373,Lady Shri Ram College,11398
U02949,11399,28.554483,77.2432,Kailash Colony,11399
U02997,11400,28.552517,77.2462,Sant Nagar,11400
U03029,11401,28.5486,77.2492,Nehru Place,11401
U03110,11402,28.548578,77.255659,Nehru Place Terminal,11402
U03165,11403,28.538692,77.261795,Govind Puri,11403
DC3693,11404,28.537554,77.261339,Govindpuri Gali No 5,11404
U03156,11405,28.5346,77.2602,Ram Puri Gali No 13,11405
U03154,11406,28.5329,77.2596,Govindpuri Extn Gali No. 16,11406
U03144,11407,28.531895,77.259197,DDA Flats Kalkaji,11407
U03131,11408,28.529982,77.258506,DDA Market Kalkaji,11408
U03135,11409,28.528315,77.257817,DDA Flats KalkaJi,11409
U03114,11410,28.5241,77.2562,Tara Apartment,11410
U03084,11411,28.51945,77.254483,Guru Ravi Das Ashram / Tughlaqabad Extension,11411
U03070,11412,28.517133,77.253667,Jamia Hamdard Library,11412
U03059,11413,28.514917,77.252817,Majeedia Hospital,11413
U03036,11414,28.511838,77.249778,Hamdard Nagar / Sangam Vihar,11414
DC4579,11415,28.660016,77.144475,Karampura Terminal,11415
U01424,11416,28.658615,77.144108,Moti Nagar,11416
U01388,11417,28.6568,77.140833,Moti Nagar Market,11417
U01344,11418,28.655,77.1376,Kirti Nagar,11418
U01271,11419,28.6528,77.1324,Basai Darapur / Ramesh Nagar,11419
U01240,11420,28.6519,77.1289,Bali Nagar,11420
U01220,11421,28.650783,77.1262,Raja Garden,11421
U03944,11422,28.647847,77.120113,Rajouri Garden,11422
U01092,11423,28.645683,77.116211,Tagore Garden,11423
U01076,11424,28.644,77.113549,Tagore Garden Metro Station / Tatarpur,11424
U01038,11425,28.64192,77.108859,Subhash Nagar Crossing / Mukherji Park,11425
U01013,11426,28.639983,77.10435,Meenakshi Garden,11426
U00976,11427,28.638567,77.100583,Sant Pura Tilak Nagar,11427
U00933,11428,28.634409,77.097456,Tilak Nagar Jail Road,11428
U00955,11429,28.6312,77.09885,Fateh Nagar,11429
U00968,11430,28.628,77.100233,G Block Hari Nagar,11430
U00986,11431,28.623954833157,77.1020124335917,Hari Nagar Depot,11431
U01766,11432,28.597241,77.171473,Officer Enclave S.P Marg,11432
U01815,11433,28.599196,77.175168,Bapu Dham,11433
U01845,11434,28.600686,77.177964,Railway Colony (Sardar Patel Marg),11434
U01939,11435,28.603864,77.184052,Bhartiya Sadhu Samaj,11435
U02031,11436,28.60751,77.188687,Palika Kutumb,11436
U02072,11437,28.611132,77.190671,11 Murti,11437
U02123,11438,28.621202,77.193727,Talkatora Stadium,11438
U02419,11439,28.625396,77.209524,Gurudwara Bangla Sahib,11439
U99913,11440,28.626382,77.212661,YMCA / Palika Kendra,11440
U02539,11441,28.628746,77.216568,Palika Kendra,11441
U99914,11442,28.667068,77.229274,ISBT Kashmere Gate,11442
U03057,11443,28.515017,77.252617,Majeedia Hospital,11443
U03067,11444,28.5172,77.2534,Jamia Hamdard Library,11444
U03081,11445,28.519567,77.2543,Guru Ravi Das Ashram / Tughlaqabad Extension,11445
U03107,11446,28.524111,77.25596,Tara Apartment,11446
U03161,11447,28.5256,77.261,Tughlaqabad Extension,11447
U03211,11448,28.527,77.267,DDA Kalkaji Extension,11448
U03217,11449,28.5345,77.2683,C-Lal Chowk,11449
U03203,11450,28.539467,77.266233,Kalkaji Depot,11450
DC0035,11451,28.591283,77.2333,Sunehari Pulla Depot / Jawahar Lal Nehru Stadium Terminal,11451
U99852A,11452,28.558951,77.296058,Unani Hospital / Okhla Ext Thokar 3,11452
DC3683,11453,28.561467,77.294667,Nai Basti,11453
U03367,11454,28.560917,77.281183,Ansari Health Care,11454
U03333,11455,28.5609,77.2798,Jamiya Millia College,11455
U03282,11456,28.56095,77.275467,Holy Family Hospital,11456
U03257,11457,28.5619,77.2723,Bharat Nagar Crossing,11457
U03238,11458,28.5666,77.269583,Bharat Nagar,11458
U02360,11459,28.698357,77.205678,GTB Nagar,11459
U02719,11460,28.6603086643348,77.2283010257233,Old Delhi Railway Station,11460
DC4968,11461,28.840692,77.127563,Singhola Crossing,11461
DC5081,11462,28.85455,77.12487,Singhu Village Crossing,11462
DC5077,11463,28.85663,77.12452,Singhu Border GT Road,11463
DC5069,11464,28.85781,77.10332,Sec A 5 Crossing Narela,11464
DC5067,11465,28.86122,77.10112,Police Colony Narela,11465
DC5065,11466,28.8644,77.09867,Sec A 5 and 8 Narela Desu Colony,11466
DC5063,11467,28.86122,77.09569,Kanya Gurukul Narela,11467
DC4973,11468,28.838416,77.102104,Narela B599 Raja Harish Chandra Hospital,11468
DC5015,11469,28.851292,77.080299,New Basti Bankner,11469
DC5016,11470,28.850763,77.07721,Bankner Village,11470
DC5019,11471,28.851133,77.073126,Sarvodaya Vidyalaya Bankner,11471
DC5021,11472,28.85183,77.067609,Lampur School,11472
DC5022,11473,28.852384,77.064919,Lampur Village,11473
DC5025,11474,28.856693,77.052374,Lampur Border,11474
U03683,11475,28.643371,77.316656,Maharaj Pur Check Post,11475
U03676,11476,28.641921,77.316118,Gazipur Depot,11476
U03623,11477,28.636133,77.310567,Hasanpur Village,11477
U03587,11478,28.635896,77.308099,Hasanpur Depot,11478
U03469,11479,28.648333,77.294949,JagatpuriF-Block,11479
U03459,11480,28.651588,77.292852,Jagatpuri A Block,11480
U03451,11481,28.655,77.2919,Radheypuri,11481
U03443,11482,28.655933,77.291417,Arjun Nagar,11482
U03412,11483,28.659883,77.28835,East Krishna Nagar,11483
U03392,11484,28.662914,77.286178,Swaran Cinema,11484
U03376,11485,28.666617,77.2832,East Azad Nagar,11485
U03343,11486,28.6678,77.282,Jharkhandi,11486
U03337,11487,28.6708,77.2806,Kanti Nagar Extension,11487
U02655,11488,28.68017,77.223489,IP College,11488
U02299,11489,28.706538,77.20454,Dhaka Village,11489
U02296,11490,28.712,77.2042666666667,Radio Colony,11490
U02294,11491,28.7148,77.204,Nirankari Colony,11491
U02215,11492,28.7208333333333,77.20005,CV Raman ITI,11492
U02158,11493,28.7271,77.1978,Nirankari Sarovar Burari Xing,11493
U02168,11494,28.732241,77.198077,Burari Transport Authourity,11494
U02159,11495,28.735,77.1973,Jharoda Dairy Xing,11495
DC3723,11496,28.741983,77.1978,Sant Nagar Main Market,11496
U02164,11497,28.7447,77.198,Chetan Bihari Mandir Sant Nagar,11497
U02183,11498,28.749,77.1985,Sarvodhya Vidhyalay Burari,11498
U02193,11499,28.754,77.1988,Burari Village,11499
DC0060,11500,28.7563,77.1971,Ekta Garden Harijan Basti,11500
U02077,11501,28.7600333333333,77.1910166666667,Laxmi Vihar,11501
U02029,11502,28.761067,77.188617,Kaushik Enclave,11502
U01938,11503,28.7643,77.1838,Amrit Vihar,11503
DC3797,11504,28.768867,77.180733,Natthupura,11504
DC4361,11505,28.775565,77.179417,Ibrahim Pur More,11505
DC4363,11506,28.779129,77.179635,Keshav Nagar Mukti Ashram,11506
U03436,11507,28.563423,77.291309,Okhla Village,11507
U03409,11508,28.562317,77.2861,Batla House,11508
U02560,11509,28.6367,77.2183,Marina,11509
U02570,11510,28.6415,77.218517,New Delhi Railway Station Gate 1,11510
U02489,11511,28.6449,77.2135,Dispensary Paharganj,11511
U02400,11512,28.646088,77.208137,Police Station Paharganj,11512
U02300,11513,28.646879,77.204151,Jhandewalan,11513
U02241,11514,28.648113,77.200963,Karol Bagh Terminal,11514
U02207,11515,28.648267,77.199017,Faiz Road,11515
U01462,11516,28.660583,77.147367,ESI Dispensary/CGHS Dispensary,11516
DC5017,11517,28.850842,77.076805,Bankner Village,11517
DC5014,11518,28.851418,77.080363,New Basti Bankner,11518
DC5005,11519,28.829124,77.094652,Bhor Garh,11519
DC5003,11520,28.821359,77.100732,DSIDC Narela,11520
DC4999,11521,28.817344,77.1028,Shahpur Garhi,11521
U00566,11522,28.599902,77.061304,Madhu Vihar,11522
U00585,11523,28.597255,77.065344,Dwarka Sec 2-6,11523
U00613,11524,28.595881,77.06927,J M International School,11524
U00719,11525,28.587163,77.086721,Palam Gaon Crossing,11525
DC3631,11526,28.58395,77.091517,Dwarka Flyover Palam Village,11526
U01096A,11527,28.5833752,77.1166377,More Lines,11527
DC3839,11528,28.58705,77.118483,Blood Bank,11528
DC3842,11529,28.58943,77.11972,Kendriya Vidhyalaya,11529
U01142,11530,28.5922,77.1211,Geeta Ashram,11530
U01158,11531,28.5954,77.1227,Sadar Bazar,11531
DC3663,11532,28.599133,77.125683,Chhawni Hospital,11532
U01239,11533,28.5977,77.1292,Kabul Line,11533
U01296,11534,28.5966,77.1347,Shastri Bazar,11534
DC3664,11535,28.596667,77.140783,Sri Nagesh Garden,11535
U01442,11536,28.596667,77.1454,St. Martin School,11536
U02146,11537,28.6226,77.1966,Dr. RML Hospital,11537
U02165,11538,28.624508,77.197924,RML Hospital,11538
U02457,11539,28.6244,77.2112,Patel Chowk,11539
DC3704,11540,28.617483,77.213267,Krishi Bhawan,11540
DC4131,11541,28.619333,77.2176,Le Meridian Hotel,11541
U02597,11542,28.6208,77.2206,Firoz Shah Road,11542
U02711,11543,28.6234,77.2266,Kasturba Gandhi Crossing,11543
U02967,11544,28.639826,77.243667,Delhi Gate / Ambedkar Stadium Terminal,11544
U03010,11545,28.6328,77.2472,Indira Gandhi Stadium,11545
U03018,11546,28.629567,77.247833,ITO Ring Road,11546
DC4203,11547,28.638019324074,77.2526922041963,Delhi Sachivalaya (Rajghat Power House),11547
DC4443,11548,28.545597,76.965275,Shikar Pur Crossing,11548
U02305,11549,28.617513,77.203683,Kendriya Terminal (Church Road),11549
U02345,11550,28.6185,77.206,Gurudwara Rakab Ganj,11550
U01510,11551,28.59015,77.15675,RR Hospital / Maharana Pratap Chowk,11551
U01510AF,11552,28.583678,77.146096,Air Force HQ / Subroto Park,11552
U01385,11553,28.579433,77.145,APS Colony/ Jharera Gaon,11553
U01288,11554,28.566367,77.134283,Shankar Vihar/ National Highway 8,11554
U99910,11555,28.545775,77.123056,Mahipal Pur Crossing NH-8,11555
U01114,11556,28.541953,77.118268,Rang Puri (NH-8),11556
U01071,11557,28.535769,77.112611,Shiv Murti,11557
U00954,11558,28.523139,77.099001,Rajokari Crossing NH-8,11558
U99827,11559,28.534898,77.108437,Shiv Murti / Dwarka More,11559
U99828,11560,28.537322,77.092137,Samalkha Crossing,11560
U99829,11561,28.534542,77.090534,Samalkha Village,11561
U99727,11562,28.528867,77.08675,Kapashera Crossing,11562
U00757,11563,28.5235,77.08325,Kapashera Village,11563
U04003A,11564,28.54735,77.253991,Nehru Place Terminal,11564
U03034,11565,28.54755,77.249444,Nehru Place,11565
U02999,11566,28.552367,77.246167,Sant Nagar,11566
U02940,11567,28.5561,77.2411,Kailash Colony,11567
U02863,11568,28.5588,77.2371,Lady Shri Ram College,11568
U02827,11569,28.5597,77.2335,Central School (KV),11569
U02774,11570,28.566027,77.229627,Andrews Ganj,11570
U02596,11571,28.568367,77.22315,South Extension,11571
U02567,11572,28.568682,77.218314,South Extn Kotla Petrol Pump,11572
U02487,11573,28.568914,77.213693,AIIMS,11573
U02309,11574,28.569541,77.203522,SJ Hospital Ring Road,11574
U02131,11575,28.5692962453425,77.1950392077132,Nauroji Nagar,11575
U01947,11576,28.569743,77.186793,Hyatt Hotel (GAIL),11576
U01924,11577,28.570381,77.182761,RK Puram Sec-12,11577
U01871,11578,28.5723,77.1798,RK Puram Sec-12,11578
U01844,11579,28.5752,77.1778,RK Puram Sec-12,11579
U01802,11580,28.581592,77.174168,South Moti Bagh (Ring Road),11580
U01776,11581,28.584933,77.172167,Moti Bagh Gurudawara Nanakpura,11581
U01750,11582,28.58769,77.170461,Satya Niketan,11582
U01716,11583,28.590383,77.168467,ARSD College (Dhaula Kuan),11583
U01671,11584,28.5985348,77.1633019,Dhaula Kuan,11584
U01489,11585,28.603903,77.155531,R R Lines,11585
U99859,11586,28.605202,77.146802,Garrison Engg.,11586
DC4515,11587,28.6072794,77.1410982,Brar Square,11587
U01208A,11588,28.60535,77.126367,Kirbi Place,11588
U01040,11589,28.611868,77.109342,Nangal Raya Lajwanti Garden,11589
U01025,11590,28.607682,77.104129,D Block Janak Puri (Pankha Road),11590
DC4021,11591,28.5231535784119,76.8993902647887,Rawta Village,11591
DC4022,11592,28.531783,76.9071,Jhuljhuli Crossing,11592
DC4027,11593,28.5947182179689,76.9151624017073,Jaffarpur Kalan RTRM Hospital,11593
DC4029,11594,28.608448,76.94512,Mitraon Village (Kair Village Road),11594
U03732,11595,28.6777630953188,77.3232454571536,Shahdara Border Seemapuri Road,11595
U03754,11596,28.679779,77.324753,J and K Pocket Dilshad Garden,11596
U03772,11597,28.681281,77.328043,Seemapuri Old J / K,11597
U03794,11598,28.684794,77.331346,New Seema Puri Depot Cluster,11598
U03793,22688,28.685631,77.331179,Dilshad Garden Depot Cluster,22688
U03789,11599,28.688212,77.330289,Shalimar Garden More,11599
U03770,11600,28.692877,77.32719,DLF More,11600
DC3794,11601,28.691367,77.324967,Tahir Pur,11601
U03735,11602,28.688813,77.321994,Anand Gram,11602
U03726,11603,28.688673,77.319121,Anand Gram Kusht Ashram,11603
U03669,11604,28.692844,77.315743,Sunder Nagri,11604
U03658,11605,28.695745,77.315146,Gagan Cinema,11605
U03657,11606,28.697499,77.314785,Gagan Cinema (Wazirabad Road),11606
U03634,11607,28.698102,77.311463,Bank Colony,11607
U03582,11608,28.698972,77.306183,Nand Nagri Depot,11608
U03492,11609,28.700066,77.297896,Ashok Nagar / Meet Nagar,11609
U03441,11610,28.700502,77.295585,MIG Flates Loni Road,11610
DC4887,11611,28.699263,77.291784,MIG Flats Loni Road,11611
DC4883,11613,28.691428,77.292048,Jyoti Nagar,11613
DC3987,11614,28.68922,77.291307,Jyoti Nagar / Durga Puri,11614
DC3988,11615,28.6894,77.287,Chhajjupur,11615
DC3989,11616,28.6898,77.283783,Shiv Mandir,11616
DC3990,11617,28.690694,77.279477,Babar Pur Ext Terminal,11617
DC4053,11618,28.694417,77.280517,Vijay Park / Kabir Nagar,11618
DC4054,11619,28.696833,77.281817,Krishna Marg Kardam Puri,11619
DC4055,11620,28.70045,77.283483,C4 Yamuna Vihar Crossing,11620
DC4056,11621,28.70175,77.28245,Gokul Puri,11621
U03648,11622,28.6934,77.31375,Nand Nagari E-Block,11622
U03627,11623,28.691383,77.310483,Nand Nagari Terminal,11623
U01418,11624,28.6604173918537,77.1437698380862,Karampura Terminal,11624
U01454,11625,28.6588833333333,77.1466833333333,Moti Nagar Industrial Area,11625
U01473,11626,28.6575,77.1489,Moti Nagar Industrial Area,11626
U01542,11627,28.6536,77.1553,Shadipur Depot,11627
U02232,11628,28.648374,77.200656,Karol Bagh Terminal,11628
U02311,11629,28.647103,77.2039,Jhandewalan,11629
U02577,11630,28.6416802,77.2185624,New Delhi Railway Station Gate 1,11630
U02564,11631,28.6369,77.2185,Marina,11631
U02622,11632,28.62921,77.221797,Kailash Bhawan,11632
U02668,11633,28.6245,77.2246,Max Mueller Bhawan,11633
U02704,11634,28.6213,77.2264,Bhartiya Vidya Bhawan,11634
U02748,11635,28.617358,77.228653,Baroda House,11635
U02784,11636,28.615895,77.230278,Baroda House,11636
U02838,11637,28.6136,77.2347,National Stadium,11637
U99848,11638,28.609467,77.2379,High Court,11638
U02900,11639,28.608422,77.240216,Zoo,11639
U02924,11640,28.605254,77.240356,Sunder Nagar,11640
NS0265,11641,28.598679,77.240793,Delhi Public School,11641
U02977,11642,28.591455,77.245072,Police Station Nizamuddin (Dargah),11642
U02998,11643,28.589642,77.246307,Nizamuddin Extension,11643
DC4007,11644,28.584883,77.249733,Bhogal (Jungpura),11644
U03045,11645,28.583537,77.25079,Bhogal,11645
U03151,11646,28.570423,77.259919,Ashram Chowk,11646
U03188,11647,28.566306,77.263032,Mata Mandir New Friends Colony,11647
DC3694,11648,28.566738,77.269676,Bharat Nagar,11648
U03258,11649,28.5622,77.2723,Bharat Nagar Crossing,11649
U03277,11650,28.561083,77.275417,Holy Family Hospital,11650
U03336,11651,28.56115,77.280117,Jamiya Millia College,11651
U03358,11652,28.5614,77.2836,Ansari Health Care,11652
U03406,11653,28.5647,77.288,Batla House,11653
U03439,11654,28.563283,77.291386,Okhla Village,11654
DC108,11655,28.5616,77.2945,Nai Basti,11655
U99852,11656,28.55898,77.296216,Unani Hospital / Okhla Ext Thokar 3,11656
U03087,11657,28.547317,77.254033,Nehru Place,11657
U02968,11658,28.543597,77.244165,Pumposh Enclave,11658
U02852,11659,28.54045,77.235833,OS Communication / Masjid Moth,11659
U02676,11660,28.542197,77.224691,Swami Nagar,11660
DC0081,11661,28.542652,77.218522,North Paint Nursing Home,11661
U02513,11662,28.542929,77.215014,Sadhna Enclave,11662
U02339,11663,28.54372,77.205142,Panchsheel Club (Sarv Priya Vihar),11663
U02248,11664,28.5695,77.2014,Raj Nagar,11664
DC4862,11665,28.570583,77.199117,AB Block Sarojini Nagar,11665
DC4863,11666,28.5752,77.199017,PS Sarojini Nagar,11666
DC4864,11667,28.5776,77.198917,Sarojini Nagar Market,11667
DC4865,11668,28.579866,77.199509,Enquiry Office Pilanji Village,11668
DC4866,11669,28.579815,77.204491,Laxmi Bai Nagar,11669
DC5165,11670,28.591505,76.919022,Jaffar Pur Kalan,11670
U00627,11671,28.627428,77.071721,Vikas Puri Crossing,11671
U00673,11672,28.628843,77.07552,Dholi Piao,11672
U00695,11673,28.630165,77.078084,Janak Puri  District Centre,11673
U00776,11674,28.633285302313,77.086332224213,Janakpuri East Nangli Zalib,11674
U00826,11675,28.63410634,77.08877739,Janak Puri Check Post,11675
U00874,11676,28.635538,77.092903,Tilak Nagar Crossing,11676
U00932,11677,28.6366685626427,77.0970603768867,Tilak Nagar Terminal,11677
DC3943,11678,28.6179588796309,77.3365053498808,Sapera Basti Crossing,11678
U03812A,11679,28.614033,77.337349,Mayur Vihar Ph-III,11679
U03823,11680,28.611517,77.3399,CRPF Camp,11680
U03814,11681,28.608467,77.33735,Mayur Vihar Phase III A1 Block,11681
U03798,11682,28.60535,77.333117,Bharti Public School,11682
U03786,11683,28.602883,77.329317,New Kondali A1 Crossing,11683
U03769,11684,28.6017,77.32755,Mayur vihar Phase-III Crossing,11684
U03760,11685,28.601583,77.326033,Mayur vihar Phase-III Crossing,11685
DC4050,11686,28.603149,77.324699,Ganpati Mandir,11686
U03738,11687,28.605066,77.322685,Fire Station,11687
U03709,11688,28.608617,77.319983,Dallu Pura,11688
U03743,11689,28.612978,77.322856,Kondali Old,11689
U03705,11690,28.61462368,77.31924063,Kalyan Puri Crossing,11690
U03678,11691,28.61335,77.3162,Super Bazar,11691
U03638,11692,28.61279,77.312844,Chand Cinema,11692
DC4035,11693,28.6173,77.309633,Lal Bahadur Shashtri Hospital,11693
DC4036,11694,28.61915,77.3089,Kalyan Vas,11694
DC4037,11695,28.620517,77.307533,Radha Swami Satsang,11695
DC4038,11696,28.620115,77.304936,Mayur Vihar Phase 2 (T),11696
DC4575,11697,28.620507,77.29787,East Vinod Nagar (NH24),11697
U03470,11698,28.621767,77.295083,Govt Model School / Ambedkar Park,11698
U03432,11699,28.6199,77.29005,Dharma Apartment,11699
U03391,11700,28.619767,77.285817,Mother Dairy,11700
U03378,11701,28.62085,77.285167,Ganesh Nagar,11701
U03327,11702,28.6271,77.279467,Shakar Pur School Block,11702
U03295,11703,28.629233,77.27735,Laxmi Nagar / Shakarpur Crossing,11703
U03006,11704,28.626394,77.246675,ITO Ring Road,11704
U03007,11705,28.633714,77.246653,IG Stadium,11705
U03004,11706,28.636821,77.246692,Gandhi Darshan,11706
U02969,11707,28.639661,77.243789,Delhi Gate / Ambedkar Stadium Terminal,11707
U02916,11708,28.6414,77.240467,Delhi Gate,11708
U01336,11709,28.667724,77.137508,Punjabi Bagh Terminal,11709
U01375,11710,28.66365,77.140683,New Moti Nagar B Block,11710
U01525,11711,28.6628,77.1535,Campa Cola,11711
U01601,11712,28.665367,77.159933,DCM Chemical,11712
U01640,11713,28.668,77.164283,Zakhira,11713
U01697,11714,28.6714,77.1672,Inderlok,11714
U01834,11715,28.671267,77.176283,Shastri Nagar E Block,11715
U01902,11716,28.670231,77.181136,Shastri Nagar Metro Station,11716
U01940,11717,28.6712,77.18405,Subhadra Colony,11717
U01999,11718,28.67305,77.186467,Shastri Nagar A Block,11718
U02032,11719,28.675,77.1883,Gulabi Bagh,11719
U02036,11720,28.6769833333333,77.1889,Chowki No 2 / Gulabi Bagh Crossing,11720
U02136,11721,28.68035,77.196233,Shakti Nagar Nangia Park,11721
U02252,11722,28.6842833333333,77.2023166666667,Roop Nagar / Kamla Nagar,11722
U02286,11723,28.684767,77.203767,Banglow Road / Police Station Roop Nagar,11723
U02336,11724,28.6865,77.205567,Maurice Nagar II,11724
NS0454,11725,28.6882,77.2063,Doulat Ram College,11725
U02366,11726,28.6891,77.2068,Shri Ram College,11726
U02433,11727,28.694883,77.209683,Khalsa College,11727
U02586,11728,28.703583,77.219917,INMAS,11728
U02607,11729,28.706,77.2211,CGHC Dispensary,11729
DC3777,11730,28.70539,77.223156,Balak Ram Hospital,11730
U02945,11731,28.708955,77.242031,Gurudwara NanakSar,11731
U03039,11732,28.706399,77.250832,Rajeev Nagar (Wazirabad Road),11732
U03176,11733,28.703658,77.26329,Bhajanpura,11733
U03215,11734,28.703815643863,77.2651022724249,Bhajanpura (Karawal Nagar Road),11734
U03246,11735,28.70311,77.270665,B-Block Yamuna Vihar,11735
U03284,11736,28.702743,77.275161,Yamuna Vihar Brij Puri,11736
U03306,11737,28.702421,77.278568,C 4 Yamuna Vihar,11737
U03411,11738,28.701534,77.288114,B R Ambedkar College (Loni Road Xing),11738
U03458,11739,28.700716,77.295277,MIG Flates Loni Road,11739
U03478,11740,28.700269,77.297937,Ashok Nagar / Meet Nagar,11740
U03580,11741,28.699088,77.30674,Nand Nagari Depot,11741
U03628,11742,28.698374,77.311063,Bank Colony,11742
U03677,11743,28.697593,77.315254,Gagan Cinema Wazirabad Road,11743
U03749,11744,28.698744,77.321894,Harsh Vihar Terminal,11744
DC3775,11745,28.676381,77.318153,Jhilmil Crossing GT Road,11745
U00477,11746,28.682077,77.048164,Rajdhani Park,11746
U00442,11747,28.682159,77.041037,Swarn Park,11747
U00430,11748,28.682199,77.036078,Mundka Village Crossing,11748
U00398,11749,28.6822607103131,77.0300988906192,Mundka Village Metro Station,11749
U00380,11750,28.683217,77.017619,Mundka Industrial Area / Shiv Shankar Dharamkanta,11750
U00361,11751,28.683767,77.0114,Mile Stone Factory,11751
U00300,11752,28.684678,77.000986,Hiran Kudna Crossing,11752
DC5049,11753,28.803381,76.997948,Bajitpur Mandir,11753
DC5132,11754,28.808481,77.003252,Bajitpur Village,11754
DC5050,11755,28.808821,77.007671,Nangal Thakran,11755
U99876,11756,28.808967,77.015117,Dariyapur Kalan School,11756
DC3904,11757,28.8066166666667,77.0231166666667,PS Bawana,11757
U00385,11758,28.803894,77.028469,Bawana Depot,11758
U00421,11759,28.800222,77.035528,Bawana Village,11759
U00423,11760,28.796282,77.035817,Bawana School,11760
U00428,11761,28.7942,77.0368,Aditi College Bawana,11761
DC3832,11762,28.78585,77.0414,DSIDC Bawana/ Dhakewala,11762
U00478,11763,28.775033,77.047683,Maharishi Valmiki Hospital,11763
U00487,11764,28.772383,77.048967,Poothkhurd Village,11764
U00494,11765,28.767867,77.049417,Sultan Pur Crossing / Poothkhurd,11765
U00559,11766,28.760383,77.060717,Barwala Village,11766
U00582,11767,28.759233,77.062833,Barwala School,11767
U00643,11768,28.7539,77.072883,Jain Colony,11768
U00684,11769,28.75305,77.07475,Prehladpur School,11769
U00751,11770,28.7512,77.080967,Prehladpur Village,11770
U00746PM,11771,28.749319,77.084811,Prehladpur Crossing,11771
DC5052,11772,28.747934,77.08957,Rohini Sec 27 and 30 Crossing,11772
U00922,11773,28.746757,77.095936,Shahbad Dairy,11773
U00957,11774,28.746012,77.098479,Shahbad Dairy A Block,11774
U00996,11775,28.74574,77.102555,St. Xavier School Shahbad,11775
U01030SB,11776,28.745771,77.107677,Shahbad Daulatpur School,11776
U01061,11777,28.745421,77.111298,Shahbad Daulatpur Gaon,11777
U01094,11778,28.745372,77.116411,Delhi Engg College Shahbad,11778
U01139,11779,28.744197,77.120768,Rohini Sec16 Xing,11779
U01204,11780,28.744021,77.126259,Shri Krishna Apartments,11780
U01255,11781,28.74498,77.130204,Rohini DTC Depot 4,11781
DC4135,11782,28.743222,77.132039,Rohini Sec 18 B-7 Road,11782
DC5122,11783,28.7408560971639,77.1330746829692,Rohini Sec 18 Pocket A,11783
DC5124,11784,28.738982,77.135857,Rohini Sec 18,11784
DC5126,11785,28.735936,77.137677,Rohini Sec 18 B Block,11785
DC5128,11786,28.731914,77.140479,Badli Village,11786
DC5130,11787,28.727526,77.143333,Jail Road Rohini Sec 18,11787
U01451,11788,28.728649,77.146021,Badli Crossing,11788
U01513,11789,28.7310747445116,77.14969427173,Haiderpur Metro Station,11789
DC5111,11790,28.67772,77.22303,Exchange Store (Hill Road),11790
DC5114,11791,28.678372,77.220876,PNB STA Road,11791
DC5115,11792,28.67895,77.21861,Rajpur Road Transport Deptt,11792
DC5118,11793,28.67319,77.216938,MCD Store (Rajpur Road),11793
DC5120,11794,28.66961,77.21753,Aruna Asaf Ali Hospital,11794
U02606,11795,28.6614,77.2211,Novelty Cinema,11795
U03499,11796,28.6451,77.2977,Gagan Vihar,11796
DC4224,11797,28.654383,77.299067,KarKarDooma Court,11797
DC4225,11798,28.661283,77.303517,Suraj Mal Vihar,11798
DC4237,11799,28.666733,77.30465,Satyam Enclave / Jhilmil DDA Flats,11799
DC4238,11800,28.666733,77.307017,PS Vivek Vihar,11800
DC4239,11801,28.666467,77.309633,ESI Hospital,11801
DC4240,11802,28.665467,77.314517,Vivekanand Mahila College,11802
DC4082,11803,28.667933,77.3145,Vivek Vihar Terminal,11803
DC4097,11804,28.6707,77.315833,Vivek Vihar ITI,11804
DC4096,22689,28.669433,77.3187,Girls School Vivek Vihar,22689
DC4241,11805,28.667917,77.321283,Surya Nagar,11805
DC4453,11806,28.569594,76.977464,Purani Basti Rewla Khanpur,11806
DC4451,11807,28.572594,76.980927,Rewla Tajpur Crossing,11807
U00276,11808,28.58579,76.995161,Jhatikara Crossing,11808
U00025,11809,28.5976083105746,76.8992051609546,Mata Daan Kaur  School,11809
NS0408,11810,28.5976012046088,76.8950748174684,Mundhela Crossing (Dhansa Road),11810
DC4484,11811,28.6155,76.976317,Surakh Pur Crossing,11811
DC4485,11812,28.61935,76.97385,New Anaj Mandi,11812
DC4486,11813,28.623619,76.970388,Baba Haridass Nagar,11813
DC4874,11814,28.6299,76.965867,Bangali Colony,11814
DC4489,11815,28.6429,76.958117,PTS Jharoda,11815
DC4490,11816,28.646717,76.955883,S.S. Kanya Vidhyalaya,11816
DC4491,11817,28.650904,76.952779,Jharoda Village,11817
DC4492,11818,28.655633,76.949583,Jharoda Kalan,11818
DC4511,11819,28.666183,76.942533,Satyapuram Jharoda,11819
DC0032,11820,28.720102,77.068773,Rohini Sec 20/21/22 Crossing,11820
DC0036,11821,28.7192770424993,77.0843728726838,Rohini Sec 23 (Green Hill Aptt.),11821
U00866,11822,28.728320352921,77.092318065718,Rohini Sec 24 Dear Satguru Sewaram Crossing,11822
DC0037,11823,28.729924,77.094619,Dera Satguru Sewaram Sahai Sec 24/25 Crossing,11823
DC0039,11824,28.725413,77.101244,Rithala Village,11824
U01002,11825,28.723894,77.103422,Pal Colony,11825
U01036,11826,28.7198,77.108584,Rithala Metro Station,11826
U01075,11827,28.71645,77.113467,Rohini Depot 1 Sec 6,11827
DC0003,11828,28.7154,77.1147,Rohini West Metro Station,11828
U01098,11829,28.7138,77.1172,Rohini Sec-9 /7,11829
U01133,11830,28.711805,77.120144,Rohini Sec-9,11830
U01192,11831,28.708306,77.125246,Rohini Sec 7 and 8 Crossing,11831
U01212,11832,28.707061,77.127011,Fire Station Sec-8,11832
U01246,11833,28.705196,77.129655,Madhuvan Chowk,11833
U01267,11834,28.7054,77.132,Madhuban Chowk (Outer Ring Road),11834
U01322,11835,28.7078,77.1364,Pitampura RU-Block,11835
U01350,11836,28.705913,77.138568,Pitampura CD Block (Aggrasen Model School),11836
U01359,11837,28.703376,77.139486,Pittampura AP-Block,11837
U01383,11838,28.700344,77.141026,Pitam Pura KD Block,11838
U01432,11839,28.699811,77.145005,DAV School,11839
U01499,11840,28.700093,77.151621,TV Tower (Power House),11840
U01505,11841,28.698123,77.151681,Guru Govind Singh College,11841
U01486,11842,28.694143,77.151048,Netaji Subhash Palace (Wazirpur Depot) Road No 41,11842
U01528WD,11843,28.691925,77.153796,Wazirpur Depot,11843
U01487,11844,28.686246,77.151088,Telephone Exchange,11844
U01478,11845,28.685074,77.149267,Britannia,11845
U01411,11846,28.681015,77.143195,Shakurpur Shiv Mandir,11846
U02272,11847,28.6352,77.2031,Gole Market,11847
DC3754,11848,28.63225,77.205467,Gole Market (Bhai Veer Singh Marg),11848
U02329,11849,28.62895,77.205306,Gole Market (Sahitya Sadan),11849
U99795,11850,28.7377,77.007698,Kanjhawala Chowk,11850
DC4892,11851,28.554291,77.0522752,Dwarka Sec 22 Cluster Depot,11851
DC3886,11852,28.5587924,77.0428038,Pochan Pur Village,11852
DC3883,11853,28.552933,77.035183,Dhool Siras,11853
U00388MB,11854,28.539219,77.02981,Bamnoli Crossing,11854
U99830,11855,28.5421,77.017939,Bamnoli Power Station,11855
U00353,11856,28.543484,77.012062,Toll Tax Post,11856
U00343,11857,28.547917,77.009152,BSF Campus Chhawla,11857
U00328,11858,28.554271,77.006304,BSF Camp Chhawla,11858
U00320,11859,28.557851,77.004374,Sumesh Vihar,11859
U00304,11860,28.561234,77.002151,Chhawla Village,11860
U00294,11861,28.566798,77.000183,Chhawla School,11861
DC3973,11862,28.578209,76.996491,Rewla Taj Pur More,11862
U00198,11863,28.611458,76.979153,Najafgarh Dhansa More,11863
U00203,11864,28.614227,76.980845,Jharoda Crossing,11864
DC4378,11865,28.635453,77.00464,Jai Vihar Block 2,11865
DC4393,11866,28.655849,77.040491,Ranhola Village,11866
DC4399,11867,28.672904,77.059582,Aman Puri,11867
DC4400,11868,28.674624,77.061052,Qamruddin Nagar Crossing,11868
DC4401,11869,28.68008,77.066236,Nangloi Post Office,11869
DC4402,11870,28.681135,77.067063,Nangloi (Najafgarh Road),11870
DC3835,11871,28.64376,77.19701,Karol Bagh Gurgaon Stand,11871
U02237RRS,11872,28.640833,77.19515,Ravinder Rangshala,11872
NS0392,11873,28.6326953,77.1890118,Ridge Road,11873
U02237RRN,11874,28.6234,77.1803166666667,R Block Rajinder Nagar,11874
U02237BJP,11875,28.615091,77.175218,Buddha Jayanti Park,11875
DC3837,11876,28.601533,77.168417,APS School Dhaula Kuan,11876
U01439,11877,28.596443,77.145582,St. Martin School,11877
U01379,11878,28.59655,77.14065,Sri Nagesh Garden,11878
U01318,11879,28.5965006,77.1355173,Shastri Bazar,11879
U01234,11880,28.5978,77.1287,Kabul Line,11880
U01181,11881,28.59857,77.12434,Chhawani Hospital,11881
U01160,11882,28.595,77.1226,Sadar Bazar,11882
U01145,11883,28.5919,77.1211,Geeta Ashram,11883
U01127,11884,28.5895,77.1198,Kendriya Vidhyalaya,11884
DC3841,11885,28.586733,77.11845,Blood Bank,11885
U01096,11886,28.583117,77.116617,More Lines,11886
DC4152,11887,28.5456641,77.1229563,Mahipal Pur Crossing NH-8,11887
DC0012,11888,28.738531,77.008207,Kanjhawala School,11888
U00990,11889,28.625133,77.102067,Hari Nagar Depot,11889
U01055,11890,28.62455,77.11095,Hari Nagar Shaheed Pawan Sahni Chowk,11890
U01054,11891,28.6204,77.110867,Maya Enclave BSES Office,11891
DC3908,11892,28.62755,77.1216,BE Block Hari Nagar/ESI Dispensary,11892
DC4071,11893,28.648227,77.198819,Faiz Road,11893
DC5330,11894,28.6329486569293,77.0686746792796,C Block Vikas Puri,11894
U00625,11895,28.6354,77.070533,Budhela Village / C Block Vikas Puri,11895
